[
  {
    "id": "skylark-scar-cave",
    "name": "Skylark Scar Cave",
    "description": "Anonymised public demo walk marker for FieldOps Atlas.",
    "siteType": "Walk",
    "status": "demo",
    "regionId": "north-scotland",
    "lat": 57.152801,
    "lng": -2.152519,
    "what3words": "",
    "accessNotes": "",
    "address": "",
    "gridRef": "",
    "services": [],
    "inputs": [],
    "equipment": [],
    "walkthrough": {
      "type": "",
      "url": "",
      "notes": ""
    }
  },
  {
    "id": "meadow-moor-path",
    "name": "Meadow Moor Path",
    "description": "Anonymised public demo walk marker for FieldOps Atlas.",
    "siteType": "Walk",
    "status": "demo",
    "regionId": "north-scotland",
    "lat": 56.781313,
    "lng": -5.759558,
    "what3words": "",
    "accessNotes": "",
    "address": "",
    "gridRef": "",
    "services": [],
    "inputs": [],
    "equipment": [],
    "walkthrough": {
      "type": "",
      "url": "",
      "notes": ""
    }
  },
  {
    "id": "maple-scar-ridge",
    "name": "Maple Scar Ridge",
    "description": "Anonymised public demo walk marker for FieldOps Atlas.",
    "siteType": "Walk",
    "status": "demo",
    "regionId": "north-scotland",
    "lat": 56.58358,
    "lng": -3.000611,
    "what3words": "",
    "accessNotes": "",
    "address": "",
    "gridRef": "",
    "services": [],
    "inputs": [],
    "equipment": [],
    "walkthrough": {
      "type": "",
      "url": "",
      "notes": ""
    }
  },
  {
    "id": "quiet-trail-trail",
    "name": "Quiet Trail Trail",
    "description": "Anonymised public demo walk marker for FieldOps Atlas.",
    "siteType": "Walk",
    "status": "demo",
    "regionId": "north-scotland",
    "lat": 56.581848,
    "lng": -2.567178,
    "what3words": "",
    "accessNotes": "",
    "address": "",
    "gridRef": "",
    "services": [],
    "inputs": [],
    "equipment": [],
    "walkthrough": {
      "type": "",
      "url": "",
      "notes": ""
    }
  },
  {
    "id": "dew-cliff-loop",
    "name": "Dew Cliff Loop",
    "description": "Anonymised public demo walk marker for FieldOps Atlas.",
    "siteType": "Walk",
    "status": "demo",
    "regionId": "north-scotland",
    "lat": 56.678424,
    "lng": -5.316583,
    "what3words": "",
    "accessNotes": "",
    "address": "",
    "gridRef": "",
    "services": [],
    "inputs": [],
    "equipment": [],
    "walkthrough": {
      "type": "",
      "url": "",
      "notes": ""
    }
  },
  {
    "id": "maple-shelf-ramble",
    "name": "Maple Shelf Ramble",
    "description": "Anonymised public demo walk marker for FieldOps Atlas.",
    "siteType": "Walk",
    "status": "demo",
    "regionId": "north-scotland",
    "lat": 57.278355,
    "lng": -5.577665,
    "what3words": "",
    "accessNotes": "",
    "address": "",
    "gridRef": "",
    "services": [],
    "inputs": [],
    "equipment": [],
    "walkthrough": {
      "type": "",
      "url": "",
      "notes": ""
    }
  },
  {
    "id": "bluebell-camp-path",
    "name": "Bluebell Camp Path",
    "description": "Anonymised public demo walk marker for FieldOps Atlas.",
    "siteType": "Walk",
    "status": "demo",
    "regionId": "north-scotland",
    "lat": 56.685959,
    "lng": -2.691864,
    "what3words": "",
    "accessNotes": "",
    "address": "",
    "gridRef": "",
    "services": [],
    "inputs": [],
    "equipment": [],
    "walkthrough": {
      "type": "",
      "url": "",
      "notes": ""
    }
  },
  {
    "id": "slate-lane-ramble",
    "name": "Slate Lane Ramble",
    "description": "Anonymised public demo walk marker for FieldOps Atlas.",
    "siteType": "Walk",
    "status": "demo",
    "regionId": "north-scotland",
    "lat": 56.882829,
    "lng": -5.805677,
    "what3words": "",
    "accessNotes": "",
    "address": "",
    "gridRef": "",
    "services": [],
    "inputs": [],
    "equipment": [],
    "walkthrough": {
      "type": "",
      "url": "",
      "notes": ""
    }
  },
  {
    "id": "sparrow-tarn-loop",
    "name": "Sparrow Tarn Loop",
    "description": "Anonymised public demo walk marker for FieldOps Atlas.",
    "siteType": "Walk",
    "status": "demo",
    "regionId": "north-scotland",
    "lat": 57.429394,
    "lng": -5.436481,
    "what3words": "",
    "accessNotes": "",
    "address": "",
    "gridRef": "",
    "services": [],
    "inputs": [],
    "equipment": [],
    "walkthrough": {
      "type": "",
      "url": "",
      "notes": ""
    }
  },
  {
    "id": "honey-well-ramble",
    "name": "Honey Well Ramble",
    "description": "Anonymised public demo walk marker for FieldOps Atlas.",
    "siteType": "Walk",
    "status": "demo",
    "regionId": "north-scotland",
    "lat": 57.487094,
    "lng": -4.572169,
    "what3words": "",
    "accessNotes": "",
    "address": "",
    "gridRef": "",
    "services": [],
    "inputs": [],
    "equipment": [],
    "walkthrough": {
      "type": "",
      "url": "",
      "notes": ""
    }
  },
  {
    "id": "sparrow-copse-path",
    "name": "Sparrow Copse Path",
    "description": "Anonymised public demo walk marker for FieldOps Atlas.",
    "siteType": "Walk",
    "status": "demo",
    "regionId": "north-scotland",
    "lat": 57.218506,
    "lng": -3.796561,
    "what3words": "",
    "accessNotes": "",
    "address": "",
    "gridRef": "",
    "services": [],
    "inputs": [],
    "equipment": [],
    "walkthrough": {
      "type": "",
      "url": "",
      "notes": ""
    }
  },
  {
    "id": "harbour-valley-cave",
    "name": "Harbour Valley Cave",
    "description": "Anonymised public demo walk marker for FieldOps Atlas.",
    "siteType": "Walk",
    "status": "demo",
    "regionId": "north-scotland",
    "lat": 57.601034,
    "lng": -4.18694,
    "what3words": "",
    "accessNotes": "",
    "address": "",
    "gridRef": "",
    "services": [],
    "inputs": [],
    "equipment": [],
    "walkthrough": {
      "type": "",
      "url": "",
      "notes": ""
    }
  },
  {
    "id": "oak-rise-ridge",
    "name": "Oak Rise Ridge",
    "description": "Anonymised public demo walk marker for FieldOps Atlas.",
    "siteType": "Walk",
    "status": "demo",
    "regionId": "north-scotland",
    "lat": 57.678181,
    "lng": -5.772231,
    "what3words": "",
    "accessNotes": "",
    "address": "",
    "gridRef": "",
    "services": [],
    "inputs": [],
    "equipment": [],
    "walkthrough": {
      "type": "",
      "url": "",
      "notes": ""
    }
  },
  {
    "id": "shadow-edge-walk",
    "name": "Shadow Edge Walk",
    "description": "Anonymised public demo walk marker for FieldOps Atlas.",
    "siteType": "Walk",
    "status": "demo",
    "regionId": "north-scotland",
    "lat": 57.8852,
    "lng": -4.405545,
    "what3words": "",
    "accessNotes": "",
    "address": "",
    "gridRef": "",
    "services": [],
    "inputs": [],
    "equipment": [],
    "walkthrough": {
      "type": "",
      "url": "",
      "notes": ""
    }
  },
  {
    "id": "dawn-pool-ridge",
    "name": "Dawn Pool Ridge",
    "description": "Anonymised public demo walk marker for FieldOps Atlas.",
    "siteType": "Walk",
    "status": "demo",
    "regionId": "north-scotland",
    "lat": 57.156575,
    "lng": -2.144411,
    "what3words": "",
    "accessNotes": "",
    "address": "",
    "gridRef": "",
    "services": [],
    "inputs": [],
    "equipment": [],
    "walkthrough": {
      "type": "",
      "url": "",
      "notes": ""
    }
  },
  {
    "id": "river-meadow-cave",
    "name": "River Meadow Cave",
    "description": "Anonymised public demo walk marker for FieldOps Atlas.",
    "siteType": "Walk",
    "status": "demo",
    "regionId": "north-scotland",
    "lat": 56.670065,
    "lng": -5.129057,
    "what3words": "",
    "accessNotes": "",
    "address": "",
    "gridRef": "",
    "services": [],
    "inputs": [],
    "equipment": [],
    "walkthrough": {
      "type": "",
      "url": "",
      "notes": ""
    }
  },
  {
    "id": "twilight-camp-cave",
    "name": "Twilight Camp Cave",
    "description": "Anonymised public demo walk marker for FieldOps Atlas.",
    "siteType": "Walk",
    "status": "demo",
    "regionId": "north-scotland",
    "lat": 56.674397,
    "lng": -3.730754,
    "what3words": "",
    "accessNotes": "",
    "address": "",
    "gridRef": "",
    "services": [],
    "inputs": [],
    "equipment": [],
    "walkthrough": {
      "type": "",
      "url": "",
      "notes": ""
    }
  },
  {
    "id": "red-warren-loop",
    "name": "Red Warren Loop",
    "description": "Anonymised public demo walk marker for FieldOps Atlas.",
    "siteType": "Walk",
    "status": "demo",
    "regionId": "north-scotland",
    "lat": 60.756939,
    "lng": -0.80257,
    "what3words": "",
    "accessNotes": "",
    "address": "",
    "gridRef": "",
    "services": [],
    "inputs": [],
    "equipment": [],
    "walkthrough": {
      "type": "",
      "url": "",
      "notes": ""
    }
  },
  {
    "id": "elm-valley-ramble",
    "name": "Elm Valley Ramble",
    "description": "Anonymised public demo walk marker for FieldOps Atlas.",
    "siteType": "Walk",
    "status": "demo",
    "regionId": "north-scotland",
    "lat": 57.62306,
    "lng": -2.503686,
    "what3words": "",
    "accessNotes": "",
    "address": "",
    "gridRef": "",
    "services": [],
    "inputs": [],
    "equipment": [],
    "walkthrough": {
      "type": "",
      "url": "",
      "notes": ""
    }
  },
  {
    "id": "soft-loop-trail",
    "name": "Soft Loop Trail",
    "description": "Anonymised public demo walk marker for FieldOps Atlas.",
    "siteType": "Walk",
    "status": "demo",
    "regionId": "north-scotland",
    "lat": 57.638091,
    "lng": -2.565723,
    "what3words": "",
    "accessNotes": "",
    "address": "",
    "gridRef": "",
    "services": [],
    "inputs": [],
    "equipment": [],
    "walkthrough": {
      "type": "",
      "url": "",
      "notes": ""
    }
  },
  {
    "id": "rowan-brook-loop",
    "name": "Rowan Brook Loop",
    "description": "Anonymised public demo walk marker for FieldOps Atlas.",
    "siteType": "Walk",
    "status": "demo",
    "regionId": "north-scotland",
    "lat": 58.496399,
    "lng": -3.649786,
    "what3words": "",
    "accessNotes": "",
    "address": "",
    "gridRef": "",
    "services": [],
    "inputs": [],
    "equipment": [],
    "walkthrough": {
      "type": "",
      "url": "",
      "notes": ""
    }
  },
  {
    "id": "whisper-ridge-loop",
    "name": "Whisper Ridge Loop",
    "description": "Anonymised public demo walk marker for FieldOps Atlas.",
    "siteType": "Walk",
    "status": "demo",
    "regionId": "north-scotland",
    "lat": 58.470565,
    "lng": -4.372656,
    "what3words": "",
    "accessNotes": "",
    "address": "",
    "gridRef": "",
    "services": [],
    "inputs": [],
    "equipment": [],
    "walkthrough": {
      "type": "",
      "url": "",
      "notes": ""
    }
  },
  {
    "id": "oak-harbour-hollow",
    "name": "Oak Harbour Hollow",
    "description": "Anonymised public demo walk marker for FieldOps Atlas.",
    "siteType": "Walk",
    "status": "demo",
    "regionId": "north-scotland",
    "lat": 56.787602,
    "lng": -3.84164,
    "what3words": "",
    "accessNotes": "",
    "address": "",
    "gridRef": "",
    "services": [],
    "inputs": [],
    "equipment": [],
    "walkthrough": {
      "type": "",
      "url": "",
      "notes": ""
    }
  },
  {
    "id": "water-basin-path",
    "name": "Water Basin Path",
    "description": "Anonymised public demo walk marker for FieldOps Atlas.",
    "siteType": "Walk",
    "status": "demo",
    "regionId": "north-scotland",
    "lat": 57.438835,
    "lng": -1.811252,
    "what3words": "",
    "accessNotes": "",
    "address": "",
    "gridRef": "",
    "services": [],
    "inputs": [],
    "equipment": [],
    "walkthrough": {
      "type": "",
      "url": "",
      "notes": ""
    }
  },
  {
    "id": "cloud-dale-loop",
    "name": "Cloud Dale Loop",
    "description": "Anonymised public demo walk marker for FieldOps Atlas.",
    "siteType": "Walk",
    "status": "demo",
    "regionId": "north-scotland",
    "lat": 60.413863,
    "lng": -1.377061,
    "what3words": "",
    "accessNotes": "",
    "address": "",
    "gridRef": "",
    "services": [],
    "inputs": [],
    "equipment": [],
    "walkthrough": {
      "type": "",
      "url": "",
      "notes": ""
    }
  },
  {
    "id": "sparrow-glen-cave",
    "name": "Sparrow Glen Cave",
    "description": "Anonymised public demo walk marker for FieldOps Atlas.",
    "siteType": "Walk",
    "status": "demo",
    "regionId": "north-scotland",
    "lat": 56.982954,
    "lng": -3.5093,
    "what3words": "",
    "accessNotes": "",
    "address": "",
    "gridRef": "",
    "services": [],
    "inputs": [],
    "equipment": [],
    "walkthrough": {
      "type": "",
      "url": "",
      "notes": ""
    }
  },
  {
    "id": "lime-coast-loop",
    "name": "Lime Coast Loop",
    "description": "Anonymised public demo walk marker for FieldOps Atlas.",
    "siteType": "Walk",
    "status": "demo",
    "regionId": "north-scotland",
    "lat": 56.742125,
    "lng": -2.6078,
    "what3words": "",
    "accessNotes": "",
    "address": "",
    "gridRef": "",
    "services": [],
    "inputs": [],
    "equipment": [],
    "walkthrough": {
      "type": "",
      "url": "",
      "notes": ""
    }
  },
  {
    "id": "shadow-crossing-ridge",
    "name": "Shadow Crossing Ridge",
    "description": "Anonymised public demo walk marker for FieldOps Atlas.",
    "siteType": "Walk",
    "status": "demo",
    "regionId": "north-scotland",
    "lat": 56.712716,
    "lng": -2.706483,
    "what3words": "",
    "accessNotes": "",
    "address": "",
    "gridRef": "",
    "services": [],
    "inputs": [],
    "equipment": [],
    "walkthrough": {
      "type": "",
      "url": "",
      "notes": ""
    }
  },
  {
    "id": "high-ledge-hollow",
    "name": "High Ledge Hollow",
    "description": "Anonymised public demo walk marker for FieldOps Atlas.",
    "siteType": "Walk",
    "status": "demo",
    "regionId": "north-scotland",
    "lat": 60.110199,
    "lng": -1.059477,
    "what3words": "",
    "accessNotes": "",
    "address": "",
    "gridRef": "",
    "services": [],
    "inputs": [],
    "equipment": [],
    "walkthrough": {
      "type": "",
      "url": "",
      "notes": ""
    }
  },
  {
    "id": "iron-ledge-hollow",
    "name": "Iron Ledge Hollow",
    "description": "Anonymised public demo walk marker for FieldOps Atlas.",
    "siteType": "Walk",
    "status": "demo",
    "regionId": "north-scotland",
    "lat": 60.147976,
    "lng": -1.108058,
    "what3words": "",
    "accessNotes": "",
    "address": "",
    "gridRef": "",
    "services": [],
    "inputs": [],
    "equipment": [],
    "walkthrough": {
      "type": "",
      "url": "",
      "notes": ""
    }
  },
  {
    "id": "ivy-well-ramble",
    "name": "Ivy Well Ramble",
    "description": "Anonymised public demo walk marker for FieldOps Atlas.",
    "siteType": "Walk",
    "status": "demo",
    "regionId": "north-scotland",
    "lat": 59.093064,
    "lng": -3.127343,
    "what3words": "",
    "accessNotes": "",
    "address": "",
    "gridRef": "",
    "services": [],
    "inputs": [],
    "equipment": [],
    "walkthrough": {
      "type": "",
      "url": "",
      "notes": ""
    }
  },
  {
    "id": "moon-mere-ramble",
    "name": "Moon Mere Ramble",
    "description": "Anonymised public demo walk marker for FieldOps Atlas.",
    "siteType": "Walk",
    "status": "demo",
    "regionId": "north-scotland",
    "lat": 59.086738,
    "lng": -3.12973,
    "what3words": "",
    "accessNotes": "",
    "address": "",
    "gridRef": "",
    "services": [],
    "inputs": [],
    "equipment": [],
    "walkthrough": {
      "type": "",
      "url": "",
      "notes": ""
    }
  },
  {
    "id": "quiet-grove-cave",
    "name": "Quiet Grove Cave",
    "description": "Anonymised public demo walk marker for FieldOps Atlas.",
    "siteType": "Walk",
    "status": "demo",
    "regionId": "north-scotland",
    "lat": 57.139867,
    "lng": -3.677411,
    "what3words": "",
    "accessNotes": "",
    "address": "",
    "gridRef": "",
    "services": [],
    "inputs": [],
    "equipment": [],
    "walkthrough": {
      "type": "",
      "url": "",
      "notes": ""
    }
  },
  {
    "id": "pine-camp-cave",
    "name": "Pine Camp Cave",
    "description": "Anonymised public demo walk marker for FieldOps Atlas.",
    "siteType": "Walk",
    "status": "demo",
    "regionId": "north-scotland",
    "lat": 57.458889,
    "lng": -4.228421,
    "what3words": "",
    "accessNotes": "",
    "address": "",
    "gridRef": "",
    "services": [],
    "inputs": [],
    "equipment": [],
    "walkthrough": {
      "type": "",
      "url": "",
      "notes": ""
    }
  },
  {
    "id": "meadow-hollow-walk",
    "name": "Meadow Hollow Walk",
    "description": "Anonymised public demo walk marker for FieldOps Atlas.",
    "siteType": "Walk",
    "status": "demo",
    "regionId": "north-scotland",
    "lat": 56.710178,
    "lng": -4.228355,
    "what3words": "",
    "accessNotes": "",
    "address": "",
    "gridRef": "",
    "services": [],
    "inputs": [],
    "equipment": [],
    "walkthrough": {
      "type": "",
      "url": "",
      "notes": ""
    }
  },
  {
    "id": "dusk-dale-cave",
    "name": "Dusk Dale Cave",
    "description": "Anonymised public demo walk marker for FieldOps Atlas.",
    "siteType": "Walk",
    "status": "demo",
    "regionId": "north-scotland",
    "lat": 56.479444,
    "lng": -2.747483,
    "what3words": "",
    "accessNotes": "",
    "address": "",
    "gridRef": "",
    "services": [],
    "inputs": [],
    "equipment": [],
    "walkthrough": {
      "type": "",
      "url": "",
      "notes": ""
    }
  },
  {
    "id": "quiet-shelf-cave",
    "name": "Quiet Shelf Cave",
    "description": "Anonymised public demo walk marker for FieldOps Atlas.",
    "siteType": "Walk",
    "status": "demo",
    "regionId": "north-scotland",
    "lat": 57.737927,
    "lng": -5.633793,
    "what3words": "",
    "accessNotes": "",
    "address": "",
    "gridRef": "",
    "services": [],
    "inputs": [],
    "equipment": [],
    "walkthrough": {
      "type": "",
      "url": "",
      "notes": ""
    }
  },
  {
    "id": "brook-dell-loop",
    "name": "Brook Dell Loop",
    "description": "Anonymised public demo walk marker for FieldOps Atlas.",
    "siteType": "Walk",
    "status": "demo",
    "regionId": "north-scotland",
    "lat": 57.082329,
    "lng": -5.889282,
    "what3words": "",
    "accessNotes": "",
    "address": "",
    "gridRef": "",
    "services": [],
    "inputs": [],
    "equipment": [],
    "walkthrough": {
      "type": "",
      "url": "",
      "notes": ""
    }
  },
  {
    "id": "water-dell-cave",
    "name": "Water Dell Cave",
    "description": "Anonymised public demo walk marker for FieldOps Atlas.",
    "siteType": "Walk",
    "status": "demo",
    "regionId": "north-scotland",
    "lat": 60.555698,
    "lng": -1.369587,
    "what3words": "",
    "accessNotes": "",
    "address": "",
    "gridRef": "",
    "services": [],
    "inputs": [],
    "equipment": [],
    "walkthrough": {
      "type": "",
      "url": "",
      "notes": ""
    }
  },
  {
    "id": "sandy-spring-walk",
    "name": "Sandy Spring Walk",
    "description": "Anonymised public demo walk marker for FieldOps Atlas.",
    "siteType": "Walk",
    "status": "demo",
    "regionId": "north-scotland",
    "lat": 56.835586,
    "lng": -5.070079,
    "what3words": "",
    "accessNotes": "",
    "address": "",
    "gridRef": "",
    "services": [],
    "inputs": [],
    "equipment": [],
    "walkthrough": {
      "type": "",
      "url": "",
      "notes": ""
    }
  },
  {
    "id": "robin-gate-ridge",
    "name": "Robin Gate Ridge",
    "description": "Anonymised public demo walk marker for FieldOps Atlas.",
    "siteType": "Walk",
    "status": "demo",
    "regionId": "north-scotland",
    "lat": 57.505255,
    "lng": -3.250978,
    "what3words": "",
    "accessNotes": "",
    "address": "",
    "gridRef": "",
    "services": [],
    "inputs": [],
    "equipment": [],
    "walkthrough": {
      "type": "",
      "url": "",
      "notes": ""
    }
  },
  {
    "id": "cedar-way-cave",
    "name": "Cedar Way Cave",
    "description": "Anonymised public demo walk marker for FieldOps Atlas.",
    "siteType": "Walk",
    "status": "demo",
    "regionId": "north-scotland",
    "lat": 56.809604,
    "lng": -5.077354,
    "what3words": "",
    "accessNotes": "",
    "address": "",
    "gridRef": "",
    "services": [],
    "inputs": [],
    "equipment": [],
    "walkthrough": {
      "type": "",
      "url": "",
      "notes": ""
    }
  },
  {
    "id": "low-wood-hollow",
    "name": "Low Wood Hollow",
    "description": "Anonymised public demo walk marker for FieldOps Atlas.",
    "siteType": "Walk",
    "status": "demo",
    "regionId": "north-scotland",
    "lat": 57.655954,
    "lng": -4.062835,
    "what3words": "",
    "accessNotes": "",
    "address": "",
    "gridRef": "",
    "services": [],
    "inputs": [],
    "equipment": [],
    "walkthrough": {
      "type": "",
      "url": "",
      "notes": ""
    }
  },
  {
    "id": "soft-lantern-trail",
    "name": "Soft Lantern Trail",
    "description": "Anonymised public demo walk marker for FieldOps Atlas.",
    "siteType": "Walk",
    "status": "demo",
    "regionId": "north-scotland",
    "lat": 56.949418,
    "lng": -4.237214,
    "what3words": "",
    "accessNotes": "",
    "address": "",
    "gridRef": "",
    "services": [],
    "inputs": [],
    "equipment": [],
    "walkthrough": {
      "type": "",
      "url": "",
      "notes": ""
    }
  },
  {
    "id": "bronze-field-path",
    "name": "Bronze Field Path",
    "description": "Anonymised public demo walk marker for FieldOps Atlas.",
    "siteType": "Walk",
    "status": "demo",
    "regionId": "north-scotland",
    "lat": 56.783988,
    "lng": -4.130402,
    "what3words": "",
    "accessNotes": "",
    "address": "",
    "gridRef": "",
    "services": [],
    "inputs": [],
    "equipment": [],
    "walkthrough": {
      "type": "",
      "url": "",
      "notes": ""
    }
  },
  {
    "id": "low-meadow-cave",
    "name": "Low Meadow Cave",
    "description": "Anonymised public demo walk marker for FieldOps Atlas.",
    "siteType": "Walk",
    "status": "demo",
    "regionId": "north-scotland",
    "lat": 57.316287,
    "lng": -5.592385,
    "what3words": "",
    "accessNotes": "",
    "address": "",
    "gridRef": "",
    "services": [],
    "inputs": [],
    "equipment": [],
    "walkthrough": {
      "type": "",
      "url": "",
      "notes": ""
    }
  },
  {
    "id": "otter-glen-trail",
    "name": "Otter Glen Trail",
    "description": "Anonymised public demo walk marker for FieldOps Atlas.",
    "siteType": "Walk",
    "status": "demo",
    "regionId": "north-scotland",
    "lat": 56.487363,
    "lng": -3.004841,
    "what3words": "",
    "accessNotes": "",
    "address": "",
    "gridRef": "",
    "services": [],
    "inputs": [],
    "equipment": [],
    "walkthrough": {
      "type": "",
      "url": "",
      "notes": ""
    }
  },
  {
    "id": "sunset-grove-hollow",
    "name": "Sunset Grove Hollow",
    "description": "Anonymised public demo walk marker for FieldOps Atlas.",
    "siteType": "Walk",
    "status": "demo",
    "regionId": "north-scotland",
    "lat": 56.503377,
    "lng": -2.975514,
    "what3words": "",
    "accessNotes": "",
    "address": "",
    "gridRef": "",
    "services": [],
    "inputs": [],
    "equipment": [],
    "walkthrough": {
      "type": "",
      "url": "",
      "notes": ""
    }
  },
  {
    "id": "summer-water-ramble",
    "name": "Summer Water Ramble",
    "description": "Anonymised public demo walk marker for FieldOps Atlas.",
    "siteType": "Walk",
    "status": "demo",
    "regionId": "north-scotland",
    "lat": 56.443014,
    "lng": -3.00413,
    "what3words": "",
    "accessNotes": "",
    "address": "",
    "gridRef": "",
    "services": [],
    "inputs": [],
    "equipment": [],
    "walkthrough": {
      "type": "",
      "url": "",
      "notes": ""
    }
  },
  {
    "id": "larch-dale-loop",
    "name": "Larch Dale Loop",
    "description": "Anonymised public demo walk marker for FieldOps Atlas.",
    "siteType": "Walk",
    "status": "demo",
    "regionId": "north-scotland",
    "lat": 56.584497,
    "lng": -3.582946,
    "what3words": "",
    "accessNotes": "",
    "address": "",
    "gridRef": "",
    "services": [],
    "inputs": [],
    "equipment": [],
    "walkthrough": {
      "type": "",
      "url": "",
      "notes": ""
    }
  },
  {
    "id": "bluebell-ladder-path",
    "name": "Bluebell Ladder Path",
    "description": "Anonymised public demo walk marker for FieldOps Atlas.",
    "siteType": "Walk",
    "status": "demo",
    "regionId": "north-scotland",
    "lat": 56.534612,
    "lng": -3.54976,
    "what3words": "",
    "accessNotes": "",
    "address": "",
    "gridRef": "",
    "services": [],
    "inputs": [],
    "equipment": [],
    "walkthrough": {
      "type": "",
      "url": "",
      "notes": ""
    }
  },
  {
    "id": "wind-coast-ramble",
    "name": "Wind Coast Ramble",
    "description": "Anonymised public demo walk marker for FieldOps Atlas.",
    "siteType": "Walk",
    "status": "demo",
    "regionId": "north-scotland",
    "lat": 58.59017,
    "lng": -4.753391,
    "what3words": "",
    "accessNotes": "",
    "address": "",
    "gridRef": "",
    "services": [],
    "inputs": [],
    "equipment": [],
    "walkthrough": {
      "type": "",
      "url": "",
      "notes": ""
    }
  },
  {
    "id": "cedar-glen-walk",
    "name": "Cedar Glen Walk",
    "description": "Anonymised public demo walk marker for FieldOps Atlas.",
    "siteType": "Walk",
    "status": "demo",
    "regionId": "north-scotland",
    "lat": 56.972632,
    "lng": -2.426657,
    "what3words": "",
    "accessNotes": "",
    "address": "",
    "gridRef": "",
    "services": [],
    "inputs": [],
    "equipment": [],
    "walkthrough": {
      "type": "",
      "url": "",
      "notes": ""
    }
  },
  {
    "id": "robin-field-hollow",
    "name": "Robin Field Hollow",
    "description": "Anonymised public demo walk marker for FieldOps Atlas.",
    "siteType": "Walk",
    "status": "demo",
    "regionId": "north-scotland",
    "lat": 57.394871,
    "lng": -2.031903,
    "what3words": "",
    "accessNotes": "",
    "address": "",
    "gridRef": "",
    "services": [],
    "inputs": [],
    "equipment": [],
    "walkthrough": {
      "type": "",
      "url": "",
      "notes": ""
    }
  },
  {
    "id": "dawn-path-walk",
    "name": "Dawn Path Walk",
    "description": "Anonymised public demo walk marker for FieldOps Atlas.",
    "siteType": "Walk",
    "status": "demo",
    "regionId": "north-scotland",
    "lat": 60.475316,
    "lng": -1.600173,
    "what3words": "",
    "accessNotes": "",
    "address": "",
    "gridRef": "",
    "services": [],
    "inputs": [],
    "equipment": [],
    "walkthrough": {
      "type": "",
      "url": "",
      "notes": ""
    }
  },
  {
    "id": "bramble-loop-ridge",
    "name": "Bramble Loop Ridge",
    "description": "Anonymised public demo walk marker for FieldOps Atlas.",
    "siteType": "Walk",
    "status": "demo",
    "regionId": "north-scotland",
    "lat": 60.631858,
    "lng": -0.966236,
    "what3words": "",
    "accessNotes": "",
    "address": "",
    "gridRef": "",
    "services": [],
    "inputs": [],
    "equipment": [],
    "walkthrough": {
      "type": "",
      "url": "",
      "notes": ""
    }
  },
  {
    "id": "bronze-edge-cave",
    "name": "Bronze Edge Cave",
    "description": "Anonymised public demo walk marker for FieldOps Atlas.",
    "siteType": "Walk",
    "status": "demo",
    "regionId": "north-scotland",
    "lat": 59.945499,
    "lng": -1.42458,
    "what3words": "",
    "accessNotes": "",
    "address": "",
    "gridRef": "",
    "services": [],
    "inputs": [],
    "equipment": [],
    "walkthrough": {
      "type": "",
      "url": "",
      "notes": ""
    }
  },
  {
    "id": "harbour-lantern-trail",
    "name": "Harbour Lantern Trail",
    "description": "Anonymised public demo walk marker for FieldOps Atlas.",
    "siteType": "Walk",
    "status": "demo",
    "regionId": "north-scotland",
    "lat": 57.640443,
    "lng": -4.52958,
    "what3words": "",
    "accessNotes": "",
    "address": "",
    "gridRef": "",
    "services": [],
    "inputs": [],
    "equipment": [],
    "walkthrough": {
      "type": "",
      "url": "",
      "notes": ""
    }
  },
  {
    "id": "amber-lantern-ramble",
    "name": "Amber Lantern Ramble",
    "description": "Anonymised public demo walk marker for FieldOps Atlas.",
    "siteType": "Walk",
    "status": "demo",
    "regionId": "north-scotland",
    "lat": 56.592375,
    "lng": -2.863979,
    "what3words": "",
    "accessNotes": "",
    "address": "",
    "gridRef": "",
    "services": [],
    "inputs": [],
    "equipment": [],
    "walkthrough": {
      "type": "",
      "url": "",
      "notes": ""
    }
  },
  {
    "id": "dusk-quarry-loop",
    "name": "Dusk Quarry Loop",
    "description": "Anonymised public demo walk marker for FieldOps Atlas.",
    "siteType": "Walk",
    "status": "demo",
    "regionId": "north-scotland",
    "lat": 56.672574,
    "lng": -2.884998,
    "what3words": "",
    "accessNotes": "",
    "address": "",
    "gridRef": "",
    "services": [],
    "inputs": [],
    "equipment": [],
    "walkthrough": {
      "type": "",
      "url": "",
      "notes": ""
    }
  },
  {
    "id": "hazel-lane-cave",
    "name": "Hazel Lane Cave",
    "description": "Anonymised public demo walk marker for FieldOps Atlas.",
    "siteType": "Walk",
    "status": "demo",
    "regionId": "north-scotland",
    "lat": 57.090193,
    "lng": -4.668139,
    "what3words": "",
    "accessNotes": "",
    "address": "",
    "gridRef": "",
    "services": [],
    "inputs": [],
    "equipment": [],
    "walkthrough": {
      "type": "",
      "url": "",
      "notes": ""
    }
  },
  {
    "id": "holly-loop-hollow",
    "name": "Holly Loop Hollow",
    "description": "Anonymised public demo walk marker for FieldOps Atlas.",
    "siteType": "Walk",
    "status": "demo",
    "regionId": "north-scotland",
    "lat": 57.615089,
    "lng": -4.043409,
    "what3words": "",
    "accessNotes": "",
    "address": "",
    "gridRef": "",
    "services": [],
    "inputs": [],
    "equipment": [],
    "walkthrough": {
      "type": "",
      "url": "",
      "notes": ""
    }
  },
  {
    "id": "bramble-rise-walk",
    "name": "Bramble Rise Walk",
    "description": "Anonymised public demo walk marker for FieldOps Atlas.",
    "siteType": "Walk",
    "status": "demo",
    "regionId": "north-scotland",
    "lat": 56.808835,
    "lng": -5.118043,
    "what3words": "",
    "accessNotes": "",
    "address": "",
    "gridRef": "",
    "services": [],
    "inputs": [],
    "equipment": [],
    "walkthrough": {
      "type": "",
      "url": "",
      "notes": ""
    }
  },
  {
    "id": "distant-camp-ridge",
    "name": "Distant Camp Ridge",
    "description": "Anonymised public demo walk marker for FieldOps Atlas.",
    "siteType": "Walk",
    "status": "demo",
    "regionId": "north-scotland",
    "lat": 56.688899,
    "lng": -3.608135,
    "what3words": "",
    "accessNotes": "",
    "address": "",
    "gridRef": "",
    "services": [],
    "inputs": [],
    "equipment": [],
    "walkthrough": {
      "type": "",
      "url": "",
      "notes": ""
    }
  },
  {
    "id": "rowan-pool-trail",
    "name": "Rowan Pool Trail",
    "description": "Anonymised public demo walk marker for FieldOps Atlas.",
    "siteType": "Walk",
    "status": "demo",
    "regionId": "north-scotland",
    "lat": 57.40395,
    "lng": -2.724475,
    "what3words": "",
    "accessNotes": "",
    "address": "",
    "gridRef": "",
    "services": [],
    "inputs": [],
    "equipment": [],
    "walkthrough": {
      "type": "",
      "url": "",
      "notes": ""
    }
  },
  {
    "id": "shadow-shelf-ridge",
    "name": "Shadow Shelf Ridge",
    "description": "Anonymised public demo walk marker for FieldOps Atlas.",
    "siteType": "Walk",
    "status": "demo",
    "regionId": "north-scotland",
    "lat": 57.434593,
    "lng": -4.501504,
    "what3words": "",
    "accessNotes": "",
    "address": "",
    "gridRef": "",
    "services": [],
    "inputs": [],
    "equipment": [],
    "walkthrough": {
      "type": "",
      "url": "",
      "notes": ""
    }
  },
  {
    "id": "bracken-quarry-hollow",
    "name": "Bracken Quarry Hollow",
    "description": "Anonymised public demo walk marker for FieldOps Atlas.",
    "siteType": "Walk",
    "status": "demo",
    "regionId": "north-scotland",
    "lat": 57.355166,
    "lng": -4.561944,
    "what3words": "",
    "accessNotes": "",
    "address": "",
    "gridRef": "",
    "services": [],
    "inputs": [],
    "equipment": [],
    "walkthrough": {
      "type": "",
      "url": "",
      "notes": ""
    }
  },
  {
    "id": "dusk-step-path",
    "name": "Dusk Step Path",
    "description": "Anonymised public demo walk marker for FieldOps Atlas.",
    "siteType": "Walk",
    "status": "demo",
    "regionId": "north-scotland",
    "lat": 57.295814,
    "lng": -4.623745,
    "what3words": "",
    "accessNotes": "",
    "address": "",
    "gridRef": "",
    "services": [],
    "inputs": [],
    "equipment": [],
    "walkthrough": {
      "type": "",
      "url": "",
      "notes": ""
    }
  },
  {
    "id": "rowan-drift-path",
    "name": "Rowan Drift Path",
    "description": "Anonymised public demo walk marker for FieldOps Atlas.",
    "siteType": "Walk",
    "status": "demo",
    "regionId": "north-scotland",
    "lat": 56.719511,
    "lng": -5.190605,
    "what3words": "",
    "accessNotes": "",
    "address": "",
    "gridRef": "",
    "services": [],
    "inputs": [],
    "equipment": [],
    "walkthrough": {
      "type": "",
      "url": "",
      "notes": ""
    }
  },
  {
    "id": "emerald-bend-hollow",
    "name": "Emerald Bend Hollow",
    "description": "Anonymised public demo walk marker for FieldOps Atlas.",
    "siteType": "Walk",
    "status": "demo",
    "regionId": "north-scotland",
    "lat": 56.661744,
    "lng": -4.795371,
    "what3words": "",
    "accessNotes": "",
    "address": "",
    "gridRef": "",
    "services": [],
    "inputs": [],
    "equipment": [],
    "walkthrough": {
      "type": "",
      "url": "",
      "notes": ""
    }
  },
  {
    "id": "spring-lantern-hollow",
    "name": "Spring Lantern Hollow",
    "description": "Anonymised public demo walk marker for FieldOps Atlas.",
    "siteType": "Walk",
    "status": "demo",
    "regionId": "north-scotland",
    "lat": 56.801382,
    "lng": -2.301941,
    "what3words": "",
    "accessNotes": "",
    "address": "",
    "gridRef": "",
    "services": [],
    "inputs": [],
    "equipment": [],
    "walkthrough": {
      "type": "",
      "url": "",
      "notes": ""
    }
  },
  {
    "id": "misty-thicket-path",
    "name": "Misty Thicket Path",
    "description": "Anonymised public demo walk marker for FieldOps Atlas.",
    "siteType": "Walk",
    "status": "demo",
    "regionId": "north-scotland",
    "lat": 56.689368,
    "lng": -3.7319,
    "what3words": "",
    "accessNotes": "",
    "address": "",
    "gridRef": "",
    "services": [],
    "inputs": [],
    "equipment": [],
    "walkthrough": {
      "type": "",
      "url": "",
      "notes": ""
    }
  },
  {
    "id": "foxglove-dell-loop",
    "name": "Foxglove Dell Loop",
    "description": "Anonymised public demo walk marker for FieldOps Atlas.",
    "siteType": "Walk",
    "status": "demo",
    "regionId": "north-scotland",
    "lat": 57.286707,
    "lng": -3.679087,
    "what3words": "",
    "accessNotes": "",
    "address": "",
    "gridRef": "",
    "services": [],
    "inputs": [],
    "equipment": [],
    "walkthrough": {
      "type": "",
      "url": "",
      "notes": ""
    }
  },
  {
    "id": "stone-cove-hollow",
    "name": "Stone Cove Hollow",
    "description": "Anonymised public demo walk marker for FieldOps Atlas.",
    "siteType": "Walk",
    "status": "demo",
    "regionId": "north-scotland",
    "lat": 60.768736,
    "lng": -0.805977,
    "what3words": "",
    "accessNotes": "",
    "address": "",
    "gridRef": "",
    "services": [],
    "inputs": [],
    "equipment": [],
    "walkthrough": {
      "type": "",
      "url": "",
      "notes": ""
    }
  },
  {
    "id": "cedar-stream-path",
    "name": "Cedar Stream Path",
    "description": "Anonymised public demo walk marker for FieldOps Atlas.",
    "siteType": "Walk",
    "status": "demo",
    "regionId": "north-scotland",
    "lat": 56.871808,
    "lng": -2.297128,
    "what3words": "",
    "accessNotes": "",
    "address": "",
    "gridRef": "",
    "services": [],
    "inputs": [],
    "equipment": [],
    "walkthrough": {
      "type": "",
      "url": "",
      "notes": ""
    }
  },
  {
    "id": "fern-shelf-loop",
    "name": "Fern Shelf Loop",
    "description": "Anonymised public demo walk marker for FieldOps Atlas.",
    "siteType": "Walk",
    "status": "demo",
    "regionId": "north-scotland",
    "lat": 57.513361,
    "lng": -4.189482,
    "what3words": "",
    "accessNotes": "",
    "address": "",
    "gridRef": "",
    "services": [],
    "inputs": [],
    "equipment": [],
    "walkthrough": {
      "type": "",
      "url": "",
      "notes": ""
    }
  },
  {
    "id": "sunset-mill-trail",
    "name": "Sunset Mill Trail",
    "description": "Anonymised public demo walk marker for FieldOps Atlas.",
    "siteType": "Walk",
    "status": "demo",
    "regionId": "north-scotland",
    "lat": 58.948292,
    "lng": -3.104857,
    "what3words": "",
    "accessNotes": "",
    "address": "",
    "gridRef": "",
    "services": [],
    "inputs": [],
    "equipment": [],
    "walkthrough": {
      "type": "",
      "url": "",
      "notes": ""
    }
  },
  {
    "id": "cinder-edge-ramble",
    "name": "Cinder Edge Ramble",
    "description": "Anonymised public demo walk marker for FieldOps Atlas.",
    "siteType": "Walk",
    "status": "demo",
    "regionId": "north-scotland",
    "lat": 58.95113,
    "lng": -3.123113,
    "what3words": "",
    "accessNotes": "",
    "address": "",
    "gridRef": "",
    "services": [],
    "inputs": [],
    "equipment": [],
    "walkthrough": {
      "type": "",
      "url": "",
      "notes": ""
    }
  },
  {
    "id": "elder-crossing-ridge",
    "name": "Elder Crossing Ridge",
    "description": "Anonymised public demo walk marker for FieldOps Atlas.",
    "siteType": "Walk",
    "status": "demo",
    "regionId": "north-scotland",
    "lat": 56.562748,
    "lng": -3.955262,
    "what3words": "",
    "accessNotes": "",
    "address": "",
    "gridRef": "",
    "services": [],
    "inputs": [],
    "equipment": [],
    "walkthrough": {
      "type": "",
      "url": "",
      "notes": ""
    }
  },
  {
    "id": "amber-view-hollow",
    "name": "Amber View Hollow",
    "description": "Anonymised public demo walk marker for FieldOps Atlas.",
    "siteType": "Walk",
    "status": "demo",
    "regionId": "north-scotland",
    "lat": 56.471348,
    "lng": -4.252573,
    "what3words": "",
    "accessNotes": "",
    "address": "",
    "gridRef": "",
    "services": [],
    "inputs": [],
    "equipment": [],
    "walkthrough": {
      "type": "",
      "url": "",
      "notes": ""
    }
  },
  {
    "id": "wind-wood-path",
    "name": "Wind Wood Path",
    "description": "Anonymised public demo walk marker for FieldOps Atlas.",
    "siteType": "Walk",
    "status": "demo",
    "regionId": "north-scotland",
    "lat": 56.421072,
    "lng": -4.249455,
    "what3words": "",
    "accessNotes": "",
    "address": "",
    "gridRef": "",
    "services": [],
    "inputs": [],
    "equipment": [],
    "walkthrough": {
      "type": "",
      "url": "",
      "notes": ""
    }
  },
  {
    "id": "river-pool-hollow",
    "name": "River Pool Hollow",
    "description": "Anonymised public demo walk marker for FieldOps Atlas.",
    "siteType": "Walk",
    "status": "demo",
    "regionId": "north-scotland",
    "lat": 57.042284,
    "lng": -3.998299,
    "what3words": "",
    "accessNotes": "",
    "address": "",
    "gridRef": "",
    "services": [],
    "inputs": [],
    "equipment": [],
    "walkthrough": {
      "type": "",
      "url": "",
      "notes": ""
    }
  },
  {
    "id": "fern-bend-path",
    "name": "Fern Bend Path",
    "description": "Anonymised public demo walk marker for FieldOps Atlas.",
    "siteType": "Walk",
    "status": "demo",
    "regionId": "north-scotland",
    "lat": 58.471907,
    "lng": -5.078117,
    "what3words": "",
    "accessNotes": "",
    "address": "",
    "gridRef": "",
    "services": [],
    "inputs": [],
    "equipment": [],
    "walkthrough": {
      "type": "",
      "url": "",
      "notes": ""
    }
  },
  {
    "id": "elder-cliff-cave",
    "name": "Elder Cliff Cave",
    "description": "Anonymised public demo walk marker for FieldOps Atlas.",
    "siteType": "Walk",
    "status": "demo",
    "regionId": "north-scotland",
    "lat": 58.443764,
    "lng": -5.002617,
    "what3words": "",
    "accessNotes": "",
    "address": "",
    "gridRef": "",
    "services": [],
    "inputs": [],
    "equipment": [],
    "walkthrough": {
      "type": "",
      "url": "",
      "notes": ""
    }
  },
  {
    "id": "quiet-well-hollow",
    "name": "Quiet Well Hollow",
    "description": "Anonymised public demo walk marker for FieldOps Atlas.",
    "siteType": "Walk",
    "status": "demo",
    "regionId": "north-scotland",
    "lat": 56.755207,
    "lng": -4.941647,
    "what3words": "",
    "accessNotes": "",
    "address": "",
    "gridRef": "",
    "services": [],
    "inputs": [],
    "equipment": [],
    "walkthrough": {
      "type": "",
      "url": "",
      "notes": ""
    }
  },
  {
    "id": "wind-harbour-loop",
    "name": "Wind Harbour Loop",
    "description": "Anonymised public demo walk marker for FieldOps Atlas.",
    "siteType": "Walk",
    "status": "demo",
    "regionId": "north-scotland",
    "lat": 56.709919,
    "lng": -3.039433,
    "what3words": "",
    "accessNotes": "",
    "address": "",
    "gridRef": "",
    "services": [],
    "inputs": [],
    "equipment": [],
    "walkthrough": {
      "type": "",
      "url": "",
      "notes": ""
    }
  },
  {
    "id": "elder-path-hollow",
    "name": "Elder Path Hollow",
    "description": "Anonymised public demo walk marker for FieldOps Atlas.",
    "siteType": "Walk",
    "status": "demo",
    "regionId": "north-scotland",
    "lat": 57.507423,
    "lng": -3.158311,
    "what3words": "",
    "accessNotes": "",
    "address": "",
    "gridRef": "",
    "services": [],
    "inputs": [],
    "equipment": [],
    "walkthrough": {
      "type": "",
      "url": "",
      "notes": ""
    }
  },
  {
    "id": "rowan-cliff-trail",
    "name": "Rowan Cliff Trail",
    "description": "Anonymised public demo walk marker for FieldOps Atlas.",
    "siteType": "Walk",
    "status": "demo",
    "regionId": "north-scotland",
    "lat": 57.248115,
    "lng": -5.693199,
    "what3words": "",
    "accessNotes": "",
    "address": "",
    "gridRef": "",
    "services": [],
    "inputs": [],
    "equipment": [],
    "walkthrough": {
      "type": "",
      "url": "",
      "notes": ""
    }
  },
  {
    "id": "hidden-cove-cave",
    "name": "Hidden Cove Cave",
    "description": "Anonymised public demo walk marker for FieldOps Atlas.",
    "siteType": "Walk",
    "status": "demo",
    "regionId": "north-scotland",
    "lat": 58.045267,
    "lng": -4.384749,
    "what3words": "",
    "accessNotes": "",
    "address": "",
    "gridRef": "",
    "services": [],
    "inputs": [],
    "equipment": [],
    "walkthrough": {
      "type": "",
      "url": "",
      "notes": ""
    }
  },
  {
    "id": "otter-hollow-loop",
    "name": "Otter Hollow Loop",
    "description": "Anonymised public demo walk marker for FieldOps Atlas.",
    "siteType": "Walk",
    "status": "demo",
    "regionId": "north-scotland",
    "lat": 56.79859,
    "lng": -2.456154,
    "what3words": "",
    "accessNotes": "",
    "address": "",
    "gridRef": "",
    "services": [],
    "inputs": [],
    "equipment": [],
    "walkthrough": {
      "type": "",
      "url": "",
      "notes": ""
    }
  },
  {
    "id": "bracken-dale-walk",
    "name": "Bracken Dale Walk",
    "description": "Anonymised public demo walk marker for FieldOps Atlas.",
    "siteType": "Walk",
    "status": "demo",
    "regionId": "north-scotland",
    "lat": 60.121461,
    "lng": -1.174134,
    "what3words": "",
    "accessNotes": "",
    "address": "",
    "gridRef": "",
    "services": [],
    "inputs": [],
    "equipment": [],
    "walkthrough": {
      "type": "",
      "url": "",
      "notes": ""
    }
  },
  {
    "id": "moon-shelf-cave",
    "name": "Moon Shelf Cave",
    "description": "Anonymised public demo walk marker for FieldOps Atlas.",
    "siteType": "Walk",
    "status": "demo",
    "regionId": "north-scotland",
    "lat": 58.110283,
    "lng": -5.267367,
    "what3words": "",
    "accessNotes": "",
    "address": "",
    "gridRef": "",
    "services": [],
    "inputs": [],
    "equipment": [],
    "walkthrough": {
      "type": "",
      "url": "",
      "notes": ""
    }
  },
  {
    "id": "crystal-copse-loop-2",
    "name": "Crystal Copse Loop 2",
    "description": "Anonymised public demo walk marker for FieldOps Atlas.",
    "siteType": "Walk",
    "status": "demo",
    "regionId": "north-scotland",
    "lat": 57.162888,
    "lng": -2.702779,
    "what3words": "",
    "accessNotes": "",
    "address": "",
    "gridRef": "",
    "services": [],
    "inputs": [],
    "equipment": [],
    "walkthrough": {
      "type": "",
      "url": "",
      "notes": ""
    }
  },
  {
    "id": "cedar-gate-walk",
    "name": "Cedar Gate Walk",
    "description": "Anonymised public demo walk marker for FieldOps Atlas.",
    "siteType": "Walk",
    "status": "demo",
    "regionId": "north-scotland",
    "lat": 57.040686,
    "lng": -5.849186,
    "what3words": "",
    "accessNotes": "",
    "address": "",
    "gridRef": "",
    "services": [],
    "inputs": [],
    "equipment": [],
    "walkthrough": {
      "type": "",
      "url": "",
      "notes": ""
    }
  },
  {
    "id": "bramble-bank-path",
    "name": "Bramble Bank Path",
    "description": "Anonymised public demo walk marker for FieldOps Atlas.",
    "siteType": "Walk",
    "status": "demo",
    "regionId": "north-scotland",
    "lat": 57.362837,
    "lng": -2.437726,
    "what3words": "",
    "accessNotes": "",
    "address": "",
    "gridRef": "",
    "services": [],
    "inputs": [],
    "equipment": [],
    "walkthrough": {
      "type": "",
      "url": "",
      "notes": ""
    }
  },
  {
    "id": "shadow-lane-ridge",
    "name": "Shadow Lane Ridge",
    "description": "Anonymised public demo walk marker for FieldOps Atlas.",
    "siteType": "Walk",
    "status": "demo",
    "regionId": "north-scotland",
    "lat": 57.808995,
    "lng": -5.817439,
    "what3words": "",
    "accessNotes": "",
    "address": "",
    "gridRef": "",
    "services": [],
    "inputs": [],
    "equipment": [],
    "walkthrough": {
      "type": "",
      "url": "",
      "notes": ""
    }
  },
  {
    "id": "bracken-drift-hollow",
    "name": "Bracken Drift Hollow",
    "description": "Anonymised public demo walk marker for FieldOps Atlas.",
    "siteType": "Walk",
    "status": "demo",
    "regionId": "north-scotland",
    "lat": 58.510231,
    "lng": -3.88648,
    "what3words": "",
    "accessNotes": "",
    "address": "",
    "gridRef": "",
    "services": [],
    "inputs": [],
    "equipment": [],
    "walkthrough": {
      "type": "",
      "url": "",
      "notes": ""
    }
  },
  {
    "id": "wren-bend-ramble",
    "name": "Wren Bend Ramble",
    "description": "Anonymised public demo walk marker for FieldOps Atlas.",
    "siteType": "Walk",
    "status": "demo",
    "regionId": "north-scotland",
    "lat": 56.448944,
    "lng": -2.782418,
    "what3words": "",
    "accessNotes": "",
    "address": "",
    "gridRef": "",
    "services": [],
    "inputs": [],
    "equipment": [],
    "walkthrough": {
      "type": "",
      "url": "",
      "notes": ""
    }
  },
  {
    "id": "honey-coast-loop",
    "name": "Honey Coast Loop",
    "description": "Anonymised public demo walk marker for FieldOps Atlas.",
    "siteType": "Walk",
    "status": "demo",
    "regionId": "north-scotland",
    "lat": 56.735855,
    "lng": -2.498213,
    "what3words": "",
    "accessNotes": "",
    "address": "",
    "gridRef": "",
    "services": [],
    "inputs": [],
    "equipment": [],
    "walkthrough": {
      "type": "",
      "url": "",
      "notes": ""
    }
  },
  {
    "id": "twilight-scar-hollow",
    "name": "Twilight Scar Hollow",
    "description": "Anonymised public demo walk marker for FieldOps Atlas.",
    "siteType": "Walk",
    "status": "demo",
    "regionId": "north-scotland",
    "lat": 57.637139,
    "lng": -2.009708,
    "what3words": "",
    "accessNotes": "",
    "address": "",
    "gridRef": "",
    "services": [],
    "inputs": [],
    "equipment": [],
    "walkthrough": {
      "type": "",
      "url": "",
      "notes": ""
    }
  },
  {
    "id": "dusk-well-trail",
    "name": "Dusk Well Trail",
    "description": "Anonymised public demo walk marker for FieldOps Atlas.",
    "siteType": "Walk",
    "status": "demo",
    "regionId": "north-scotland",
    "lat": 57.570148,
    "lng": -1.995271,
    "what3words": "",
    "accessNotes": "",
    "address": "",
    "gridRef": "",
    "services": [],
    "inputs": [],
    "equipment": [],
    "walkthrough": {
      "type": "",
      "url": "",
      "notes": ""
    }
  },
  {
    "id": "pebble-stone-path",
    "name": "Pebble Stone Path",
    "description": "Anonymised public demo walk marker for FieldOps Atlas.",
    "siteType": "Walk",
    "status": "demo",
    "regionId": "north-scotland",
    "lat": 57.627446,
    "lng": -4.262296,
    "what3words": "",
    "accessNotes": "",
    "address": "",
    "gridRef": "",
    "services": [],
    "inputs": [],
    "equipment": [],
    "walkthrough": {
      "type": "",
      "url": "",
      "notes": ""
    }
  },
  {
    "id": "ashen-path-trail",
    "name": "Ashen Path Trail",
    "description": "Anonymised public demo walk marker for FieldOps Atlas.",
    "siteType": "Walk",
    "status": "demo",
    "regionId": "north-scotland",
    "lat": 58.454913,
    "lng": -3.103338,
    "what3words": "",
    "accessNotes": "",
    "address": "",
    "gridRef": "",
    "services": [],
    "inputs": [],
    "equipment": [],
    "walkthrough": {
      "type": "",
      "url": "",
      "notes": ""
    }
  },
  {
    "id": "lime-arch-path",
    "name": "Lime Arch Path",
    "description": "Anonymised public demo walk marker for FieldOps Atlas.",
    "siteType": "Walk",
    "status": "demo",
    "regionId": "north-scotland",
    "lat": 56.687824,
    "lng": -5.270183,
    "what3words": "",
    "accessNotes": "",
    "address": "",
    "gridRef": "",
    "services": [],
    "inputs": [],
    "equipment": [],
    "walkthrough": {
      "type": "",
      "url": "",
      "notes": ""
    }
  },
  {
    "id": "velvet-falls-ramble",
    "name": "Velvet Falls Ramble",
    "description": "Anonymised public demo walk marker for FieldOps Atlas.",
    "siteType": "Walk",
    "status": "demo",
    "regionId": "north-scotland",
    "lat": 56.677588,
    "lng": -5.202882,
    "what3words": "",
    "accessNotes": "",
    "address": "",
    "gridRef": "",
    "services": [],
    "inputs": [],
    "equipment": [],
    "walkthrough": {
      "type": "",
      "url": "",
      "notes": ""
    }
  },
  {
    "id": "bracken-gate-ridge",
    "name": "Bracken Gate Ridge",
    "description": "Anonymised public demo walk marker for FieldOps Atlas.",
    "siteType": "Walk",
    "status": "demo",
    "regionId": "north-scotland",
    "lat": 57.479325,
    "lng": -1.782408,
    "what3words": "",
    "accessNotes": "",
    "address": "",
    "gridRef": "",
    "services": [],
    "inputs": [],
    "equipment": [],
    "walkthrough": {
      "type": "",
      "url": "",
      "notes": ""
    }
  },
  {
    "id": "honey-quarry-loop",
    "name": "Honey Quarry Loop",
    "description": "Anonymised public demo walk marker for FieldOps Atlas.",
    "siteType": "Walk",
    "status": "demo",
    "regionId": "north-scotland",
    "lat": 57.550328,
    "lng": -1.793856,
    "what3words": "",
    "accessNotes": "",
    "address": "",
    "gridRef": "",
    "services": [],
    "inputs": [],
    "equipment": [],
    "walkthrough": {
      "type": "",
      "url": "",
      "notes": ""
    }
  },
  {
    "id": "summer-shelf-cave",
    "name": "Summer Shelf Cave",
    "description": "Anonymised public demo walk marker for FieldOps Atlas.",
    "siteType": "Walk",
    "status": "demo",
    "regionId": "north-scotland",
    "lat": 57.4746,
    "lng": -1.818081,
    "what3words": "",
    "accessNotes": "",
    "address": "",
    "gridRef": "",
    "services": [],
    "inputs": [],
    "equipment": [],
    "walkthrough": {
      "type": "",
      "url": "",
      "notes": ""
    }
  },
  {
    "id": "cloud-haven-ramble",
    "name": "Cloud Haven Ramble",
    "description": "Anonymised public demo walk marker for FieldOps Atlas.",
    "siteType": "Walk",
    "status": "demo",
    "regionId": "north-scotland",
    "lat": 59.301906,
    "lng": -2.997369,
    "what3words": "",
    "accessNotes": "",
    "address": "",
    "gridRef": "",
    "services": [],
    "inputs": [],
    "equipment": [],
    "walkthrough": {
      "type": "",
      "url": "",
      "notes": ""
    }
  },
  {
    "id": "shadow-moor-path",
    "name": "Shadow Moor Path",
    "description": "Anonymised public demo walk marker for FieldOps Atlas.",
    "siteType": "Walk",
    "status": "demo",
    "regionId": "north-scotland",
    "lat": 56.702143,
    "lng": -3.784151,
    "what3words": "",
    "accessNotes": "",
    "address": "",
    "gridRef": "",
    "services": [],
    "inputs": [],
    "equipment": [],
    "walkthrough": {
      "type": "",
      "url": "",
      "notes": ""
    }
  },
  {
    "id": "foxglove-bank-cave",
    "name": "Foxglove Bank Cave",
    "description": "Anonymised public demo walk marker for FieldOps Atlas.",
    "siteType": "Walk",
    "status": "demo",
    "regionId": "north-scotland",
    "lat": 58.058823,
    "lng": -5.427756,
    "what3words": "",
    "accessNotes": "",
    "address": "",
    "gridRef": "",
    "services": [],
    "inputs": [],
    "equipment": [],
    "walkthrough": {
      "type": "",
      "url": "",
      "notes": ""
    }
  },
  {
    "id": "sparrow-stone-cave",
    "name": "Sparrow Stone Cave",
    "description": "Anonymised public demo walk marker for FieldOps Atlas.",
    "siteType": "Walk",
    "status": "demo",
    "regionId": "north-scotland",
    "lat": 57.79845,
    "lng": -5.584784,
    "what3words": "",
    "accessNotes": "",
    "address": "",
    "gridRef": "",
    "services": [],
    "inputs": [],
    "equipment": [],
    "walkthrough": {
      "type": "",
      "url": "",
      "notes": ""
    }
  },
  {
    "id": "emerald-moor-hollow",
    "name": "Emerald Moor Hollow",
    "description": "Anonymised public demo walk marker for FieldOps Atlas.",
    "siteType": "Walk",
    "status": "demo",
    "regionId": "north-scotland",
    "lat": 57.723252,
    "lng": -5.778587,
    "what3words": "",
    "accessNotes": "",
    "address": "",
    "gridRef": "",
    "services": [],
    "inputs": [],
    "equipment": [],
    "walkthrough": {
      "type": "",
      "url": "",
      "notes": ""
    }
  },
  {
    "id": "drift-moor-hollow",
    "name": "Drift Moor Hollow",
    "description": "Anonymised public demo walk marker for FieldOps Atlas.",
    "siteType": "Walk",
    "status": "demo",
    "regionId": "north-scotland",
    "lat": 57.020196,
    "lng": -2.105131,
    "what3words": "",
    "accessNotes": "",
    "address": "",
    "gridRef": "",
    "services": [],
    "inputs": [],
    "equipment": [],
    "walkthrough": {
      "type": "",
      "url": "",
      "notes": ""
    }
  },
  {
    "id": "drift-ledge-loop",
    "name": "Drift Ledge Loop",
    "description": "Anonymised public demo walk marker for FieldOps Atlas.",
    "siteType": "Walk",
    "status": "demo",
    "regionId": "north-scotland",
    "lat": 57.717481,
    "lng": -2.686469,
    "what3words": "",
    "accessNotes": "",
    "address": "",
    "gridRef": "",
    "services": [],
    "inputs": [],
    "equipment": [],
    "walkthrough": {
      "type": "",
      "url": "",
      "notes": ""
    }
  },
  {
    "id": "bracken-wood-cave",
    "name": "Bracken Wood Cave",
    "description": "Anonymised public demo walk marker for FieldOps Atlas.",
    "siteType": "Walk",
    "status": "demo",
    "regionId": "north-scotland",
    "lat": 57.087653,
    "lng": -2.081865,
    "what3words": "",
    "accessNotes": "",
    "address": "",
    "gridRef": "",
    "services": [],
    "inputs": [],
    "equipment": [],
    "walkthrough": {
      "type": "",
      "url": "",
      "notes": ""
    }
  },
  {
    "id": "elder-dale-ridge",
    "name": "Elder Dale Ridge",
    "description": "Anonymised public demo walk marker for FieldOps Atlas.",
    "siteType": "Walk",
    "status": "demo",
    "regionId": "north-scotland",
    "lat": 57.652292,
    "lng": -2.088494,
    "what3words": "",
    "accessNotes": "",
    "address": "",
    "gridRef": "",
    "services": [],
    "inputs": [],
    "equipment": [],
    "walkthrough": {
      "type": "",
      "url": "",
      "notes": ""
    }
  },
  {
    "id": "amber-mere-loop",
    "name": "Amber Mere Loop",
    "description": "Anonymised public demo walk marker for FieldOps Atlas.",
    "siteType": "Walk",
    "status": "demo",
    "regionId": "north-scotland",
    "lat": 57.594966,
    "lng": -4.052779,
    "what3words": "",
    "accessNotes": "",
    "address": "",
    "gridRef": "",
    "services": [],
    "inputs": [],
    "equipment": [],
    "walkthrough": {
      "type": "",
      "url": "",
      "notes": ""
    }
  },
  {
    "id": "starling-copse-ridge",
    "name": "Starling Copse Ridge",
    "description": "Anonymised public demo walk marker for FieldOps Atlas.",
    "siteType": "Walk",
    "status": "demo",
    "regionId": "north-scotland",
    "lat": 56.550821,
    "lng": -3.3144,
    "what3words": "",
    "accessNotes": "",
    "address": "",
    "gridRef": "",
    "services": [],
    "inputs": [],
    "equipment": [],
    "walkthrough": {
      "type": "",
      "url": "",
      "notes": ""
    }
  },
  {
    "id": "moon-field-trail",
    "name": "Moon Field Trail",
    "description": "Anonymised public demo walk marker for FieldOps Atlas.",
    "siteType": "Walk",
    "status": "demo",
    "regionId": "north-scotland",
    "lat": 58.307154,
    "lng": -3.415015,
    "what3words": "",
    "accessNotes": "",
    "address": "",
    "gridRef": "",
    "services": [],
    "inputs": [],
    "equipment": [],
    "walkthrough": {
      "type": "",
      "url": "",
      "notes": ""
    }
  },
  {
    "id": "golden-glen-trail",
    "name": "Golden Glen Trail",
    "description": "Anonymised public demo walk marker for FieldOps Atlas.",
    "siteType": "Walk",
    "status": "demo",
    "regionId": "north-scotland",
    "lat": 57.104991,
    "lng": -5.906604,
    "what3words": "",
    "accessNotes": "",
    "address": "",
    "gridRef": "",
    "services": [],
    "inputs": [],
    "equipment": [],
    "walkthrough": {
      "type": "",
      "url": "",
      "notes": ""
    }
  },
  {
    "id": "quiet-view-ramble",
    "name": "Quiet View Ramble",
    "description": "Anonymised public demo walk marker for FieldOps Atlas.",
    "siteType": "Walk",
    "status": "demo",
    "regionId": "north-scotland",
    "lat": 60.163227,
    "lng": -1.251055,
    "what3words": "",
    "accessNotes": "",
    "address": "",
    "gridRef": "",
    "services": [],
    "inputs": [],
    "equipment": [],
    "walkthrough": {
      "type": "",
      "url": "",
      "notes": ""
    }
  },
  {
    "id": "elder-mill-ramble",
    "name": "Elder Mill Ramble",
    "description": "Anonymised public demo walk marker for FieldOps Atlas.",
    "siteType": "Walk",
    "status": "demo",
    "regionId": "north-scotland",
    "lat": 57.481701,
    "lng": -5.67416,
    "what3words": "",
    "accessNotes": "",
    "address": "",
    "gridRef": "",
    "services": [],
    "inputs": [],
    "equipment": [],
    "walkthrough": {
      "type": "",
      "url": "",
      "notes": ""
    }
  },
  {
    "id": "ivy-lane-trail",
    "name": "Ivy Lane Trail",
    "description": "Anonymised public demo walk marker for FieldOps Atlas.",
    "siteType": "Walk",
    "status": "demo",
    "regionId": "north-scotland",
    "lat": 56.911865,
    "lng": -4.883655,
    "what3words": "",
    "accessNotes": "",
    "address": "",
    "gridRef": "",
    "services": [],
    "inputs": [],
    "equipment": [],
    "walkthrough": {
      "type": "",
      "url": "",
      "notes": ""
    }
  },
  {
    "id": "summer-burrow-loop",
    "name": "Summer Burrow Loop",
    "description": "Anonymised public demo walk marker for FieldOps Atlas.",
    "siteType": "Walk",
    "status": "demo",
    "regionId": "north-scotland",
    "lat": 57.436474,
    "lng": -1.830685,
    "what3words": "",
    "accessNotes": "",
    "address": "",
    "gridRef": "",
    "services": [],
    "inputs": [],
    "equipment": [],
    "walkthrough": {
      "type": "",
      "url": "",
      "notes": ""
    }
  },
  {
    "id": "elder-scar-cave",
    "name": "Elder Scar Cave",
    "description": "Anonymised public demo walk marker for FieldOps Atlas.",
    "siteType": "Walk",
    "status": "demo",
    "regionId": "north-scotland",
    "lat": 56.937012,
    "lng": -2.219788,
    "what3words": "",
    "accessNotes": "",
    "address": "",
    "gridRef": "",
    "services": [],
    "inputs": [],
    "equipment": [],
    "walkthrough": {
      "type": "",
      "url": "",
      "notes": ""
    }
  },
  {
    "id": "water-harbour-hollow",
    "name": "Water Harbour Hollow",
    "description": "Anonymised public demo walk marker for FieldOps Atlas.",
    "siteType": "Walk",
    "status": "demo",
    "regionId": "north-scotland",
    "lat": 56.765105,
    "lng": -5.532311,
    "what3words": "",
    "accessNotes": "",
    "address": "",
    "gridRef": "",
    "services": [],
    "inputs": [],
    "equipment": [],
    "walkthrough": {
      "type": "",
      "url": "",
      "notes": ""
    }
  },
  {
    "id": "slate-tor-walk",
    "name": "Slate Tor Walk",
    "description": "Anonymised public demo walk marker for FieldOps Atlas.",
    "siteType": "Walk",
    "status": "demo",
    "regionId": "north-scotland",
    "lat": 59.87949,
    "lng": -1.3162,
    "what3words": "",
    "accessNotes": "",
    "address": "",
    "gridRef": "",
    "services": [],
    "inputs": [],
    "equipment": [],
    "walkthrough": {
      "type": "",
      "url": "",
      "notes": ""
    }
  },
  {
    "id": "autumn-tarn-hollow",
    "name": "Autumn Tarn Hollow",
    "description": "Anonymised public demo walk marker for FieldOps Atlas.",
    "siteType": "Walk",
    "status": "demo",
    "regionId": "north-scotland",
    "lat": 60.40227,
    "lng": -1.170837,
    "what3words": "",
    "accessNotes": "",
    "address": "",
    "gridRef": "",
    "services": [],
    "inputs": [],
    "equipment": [],
    "walkthrough": {
      "type": "",
      "url": "",
      "notes": ""
    }
  },
  {
    "id": "rowan-step-cave",
    "name": "Rowan Step Cave",
    "description": "Anonymised public demo walk marker for FieldOps Atlas.",
    "siteType": "Walk",
    "status": "demo",
    "regionId": "north-scotland",
    "lat": 58.616565,
    "lng": -3.497427,
    "what3words": "",
    "accessNotes": "",
    "address": "",
    "gridRef": "",
    "services": [],
    "inputs": [],
    "equipment": [],
    "walkthrough": {
      "type": "",
      "url": "",
      "notes": ""
    }
  },
  {
    "id": "old-scar-trail",
    "name": "Old Scar Trail",
    "description": "Anonymised public demo walk marker for FieldOps Atlas.",
    "siteType": "Walk",
    "status": "demo",
    "regionId": "north-scotland",
    "lat": 57.349028,
    "lng": -3.996456,
    "what3words": "",
    "accessNotes": "",
    "address": "",
    "gridRef": "",
    "services": [],
    "inputs": [],
    "equipment": [],
    "walkthrough": {
      "type": "",
      "url": "",
      "notes": ""
    }
  },
  {
    "id": "water-hollow-path",
    "name": "Water Hollow Path",
    "description": "Anonymised public demo walk marker for FieldOps Atlas.",
    "siteType": "Walk",
    "status": "demo",
    "regionId": "north-scotland",
    "lat": 57.329283,
    "lng": -4.801547,
    "what3words": "",
    "accessNotes": "",
    "address": "",
    "gridRef": "",
    "services": [],
    "inputs": [],
    "equipment": [],
    "walkthrough": {
      "type": "",
      "url": "",
      "notes": ""
    }
  },
  {
    "id": "willow-step-loop",
    "name": "Willow Step Loop",
    "description": "Anonymised public demo walk marker for FieldOps Atlas.",
    "siteType": "Walk",
    "status": "demo",
    "regionId": "north-scotland",
    "lat": 57.319638,
    "lng": -4.746168,
    "what3words": "",
    "accessNotes": "",
    "address": "",
    "gridRef": "",
    "services": [],
    "inputs": [],
    "equipment": [],
    "walkthrough": {
      "type": "",
      "url": "",
      "notes": ""
    }
  },
  {
    "id": "distant-rise-path",
    "name": "Distant Rise Path",
    "description": "Anonymised public demo walk marker for FieldOps Atlas.",
    "siteType": "Walk",
    "status": "demo",
    "regionId": "north-scotland",
    "lat": 57.236451,
    "lng": -3.410086,
    "what3words": "",
    "accessNotes": "",
    "address": "",
    "gridRef": "",
    "services": [],
    "inputs": [],
    "equipment": [],
    "walkthrough": {
      "type": "",
      "url": "",
      "notes": ""
    }
  },
  {
    "id": "thistle-warren-ramble",
    "name": "Thistle Warren Ramble",
    "description": "Anonymised public demo walk marker for FieldOps Atlas.",
    "siteType": "Walk",
    "status": "demo",
    "regionId": "north-scotland",
    "lat": 57.571386,
    "lng": -3.008624,
    "what3words": "",
    "accessNotes": "",
    "address": "",
    "gridRef": "",
    "services": [],
    "inputs": [],
    "equipment": [],
    "walkthrough": {
      "type": "",
      "url": "",
      "notes": ""
    }
  },
  {
    "id": "brook-thicket-loop",
    "name": "Brook Thicket Loop",
    "description": "Anonymised public demo walk marker for FieldOps Atlas.",
    "siteType": "Walk",
    "status": "demo",
    "regionId": "north-scotland",
    "lat": 56.421116,
    "lng": -5.746297,
    "what3words": "",
    "accessNotes": "",
    "address": "",
    "gridRef": "",
    "services": [],
    "inputs": [],
    "equipment": [],
    "walkthrough": {
      "type": "",
      "url": "",
      "notes": ""
    }
  },
  {
    "id": "elder-bank-cave",
    "name": "Elder Bank Cave",
    "description": "Anonymised public demo walk marker for FieldOps Atlas.",
    "siteType": "Walk",
    "status": "demo",
    "regionId": "north-scotland",
    "lat": 57.032871,
    "lng": -3.041376,
    "what3words": "",
    "accessNotes": "",
    "address": "",
    "gridRef": "",
    "services": [],
    "inputs": [],
    "equipment": [],
    "walkthrough": {
      "type": "",
      "url": "",
      "notes": ""
    }
  },
  {
    "id": "oak-tarn-cave",
    "name": "Oak Tarn Cave",
    "description": "Anonymised public demo walk marker for FieldOps Atlas.",
    "siteType": "Walk",
    "status": "demo",
    "regionId": "north-scotland",
    "lat": 56.748671,
    "lng": -3.994489,
    "what3words": "",
    "accessNotes": "",
    "address": "",
    "gridRef": "",
    "services": [],
    "inputs": [],
    "equipment": [],
    "walkthrough": {
      "type": "",
      "url": "",
      "notes": ""
    }
  },
  {
    "id": "lantern-lane-path",
    "name": "Lantern Lane Path",
    "description": "Anonymised public demo walk marker for FieldOps Atlas.",
    "siteType": "Walk",
    "status": "demo",
    "regionId": "north-scotland",
    "lat": 57.504566,
    "lng": -2.520711,
    "what3words": "",
    "accessNotes": "",
    "address": "",
    "gridRef": "",
    "services": [],
    "inputs": [],
    "equipment": [],
    "walkthrough": {
      "type": "",
      "url": "",
      "notes": ""
    }
  },
  {
    "id": "deep-haven-ramble",
    "name": "Deep Haven Ramble",
    "description": "Anonymised public demo walk marker for FieldOps Atlas.",
    "siteType": "Walk",
    "status": "demo",
    "regionId": "north-scotland",
    "lat": 57.91657,
    "lng": -5.173638,
    "what3words": "",
    "accessNotes": "",
    "address": "",
    "gridRef": "",
    "services": [],
    "inputs": [],
    "equipment": [],
    "walkthrough": {
      "type": "",
      "url": "",
      "notes": ""
    }
  },
  {
    "id": "red-water-cave",
    "name": "Red Water Cave",
    "description": "Anonymised public demo walk marker for FieldOps Atlas.",
    "siteType": "Walk",
    "status": "demo",
    "regionId": "north-scotland",
    "lat": 60.32963,
    "lng": -1.236571,
    "what3words": "",
    "accessNotes": "",
    "address": "",
    "gridRef": "",
    "services": [],
    "inputs": [],
    "equipment": [],
    "walkthrough": {
      "type": "",
      "url": "",
      "notes": ""
    }
  },
  {
    "id": "otter-drift-loop",
    "name": "Otter Drift Loop",
    "description": "Anonymised public demo walk marker for FieldOps Atlas.",
    "siteType": "Walk",
    "status": "demo",
    "regionId": "north-scotland",
    "lat": 60.24724,
    "lng": -1.590405,
    "what3words": "",
    "accessNotes": "",
    "address": "",
    "gridRef": "",
    "services": [],
    "inputs": [],
    "equipment": [],
    "walkthrough": {
      "type": "",
      "url": "",
      "notes": ""
    }
  },
  {
    "id": "summer-run-cave",
    "name": "Summer Run Cave",
    "description": "Anonymised public demo walk marker for FieldOps Atlas.",
    "siteType": "Walk",
    "status": "demo",
    "regionId": "north-scotland",
    "lat": 60.266707,
    "lng": -1.351043,
    "what3words": "",
    "accessNotes": "",
    "address": "",
    "gridRef": "",
    "services": [],
    "inputs": [],
    "equipment": [],
    "walkthrough": {
      "type": "",
      "url": "",
      "notes": ""
    }
  },
  {
    "id": "low-meadow-walk-2",
    "name": "Low Meadow Walk 2",
    "description": "Anonymised public demo walk marker for FieldOps Atlas.",
    "siteType": "Walk",
    "status": "demo",
    "regionId": "north-scotland",
    "lat": 57.326411,
    "lng": -4.407565,
    "what3words": "",
    "accessNotes": "",
    "address": "",
    "gridRef": "",
    "services": [],
    "inputs": [],
    "equipment": [],
    "walkthrough": {
      "type": "",
      "url": "",
      "notes": ""
    }
  }
]
