[
  {
    "id": "brook-arch-cave",
    "name": "Brook Arch Cave",
    "description": "Anonymised public demo walk marker for FieldOps Atlas.",
    "siteType": "Walk",
    "status": "demo",
    "regionId": "south-scotland",
    "lat": 56.181331,
    "lng": -4.402567,
    "what3words": "",
    "accessNotes": "",
    "address": "",
    "gridRef": "",
    "services": [],
    "inputs": [],
    "equipment": [],
    "walkthrough": {
      "type": "",
      "url": "",
      "notes": ""
    }
  },
  {
    "id": "iron-meadow-cave",
    "name": "Iron Meadow Cave",
    "description": "Anonymised public demo walk marker for FieldOps Atlas.",
    "siteType": "Walk",
    "status": "demo",
    "regionId": "south-scotland",
    "lat": 55.458283,
    "lng": -3.640979,
    "what3words": "",
    "accessNotes": "",
    "address": "",
    "gridRef": "",
    "services": [],
    "inputs": [],
    "equipment": [],
    "walkthrough": {
      "type": "",
      "url": "",
      "notes": ""
    }
  },
  {
    "id": "moon-cliff-walk",
    "name": "Moon Cliff Walk",
    "description": "Anonymised public demo walk marker for FieldOps Atlas.",
    "siteType": "Walk",
    "status": "demo",
    "regionId": "south-scotland",
    "lat": 56.292966,
    "lng": -2.733578,
    "what3words": "",
    "accessNotes": "",
    "address": "",
    "gridRef": "",
    "services": [],
    "inputs": [],
    "equipment": [],
    "walkthrough": {
      "type": "",
      "url": "",
      "notes": ""
    }
  },
  {
    "id": "shadow-arch-path",
    "name": "Shadow Arch Path",
    "description": "Anonymised public demo walk marker for FieldOps Atlas.",
    "siteType": "Walk",
    "status": "demo",
    "regionId": "south-scotland",
    "lat": 55.437942,
    "lng": -1.681145,
    "what3words": "",
    "accessNotes": "",
    "address": "",
    "gridRef": "",
    "services": [],
    "inputs": [],
    "equipment": [],
    "walkthrough": {
      "type": "",
      "url": "",
      "notes": ""
    }
  },
  {
    "id": "spring-ladder-ridge",
    "name": "Spring Ladder Ridge",
    "description": "Anonymised public demo walk marker for FieldOps Atlas.",
    "siteType": "Walk",
    "status": "demo",
    "regionId": "south-scotland",
    "lat": 56.071132,
    "lng": -4.949233,
    "what3words": "",
    "accessNotes": "",
    "address": "",
    "gridRef": "",
    "services": [],
    "inputs": [],
    "equipment": [],
    "walkthrough": {
      "type": "",
      "url": "",
      "notes": ""
    }
  },
  {
    "id": "flint-vale-loop",
    "name": "Flint Vale Loop",
    "description": "Anonymised public demo walk marker for FieldOps Atlas.",
    "siteType": "Walk",
    "status": "demo",
    "regionId": "south-scotland",
    "lat": 55.946941,
    "lng": -4.90444,
    "what3words": "",
    "accessNotes": "",
    "address": "",
    "gridRef": "",
    "services": [],
    "inputs": [],
    "equipment": [],
    "walkthrough": {
      "type": "",
      "url": "",
      "notes": ""
    }
  },
  {
    "id": "misty-stream-hollow",
    "name": "Misty Stream Hollow",
    "description": "Anonymised public demo walk marker for FieldOps Atlas.",
    "siteType": "Walk",
    "status": "demo",
    "regionId": "south-scotland",
    "lat": 56.216887,
    "lng": -4.777877,
    "what3words": "",
    "accessNotes": "",
    "address": "",
    "gridRef": "",
    "services": [],
    "inputs": [],
    "equipment": [],
    "walkthrough": {
      "type": "",
      "url": "",
      "notes": ""
    }
  },
  {
    "id": "moss-gate-path",
    "name": "Moss Gate Path",
    "description": "Anonymised public demo walk marker for FieldOps Atlas.",
    "siteType": "Walk",
    "status": "demo",
    "regionId": "south-scotland",
    "lat": 55.203851,
    "lng": -1.577105,
    "what3words": "",
    "accessNotes": "",
    "address": "",
    "gridRef": "",
    "services": [],
    "inputs": [],
    "equipment": [],
    "walkthrough": {
      "type": "",
      "url": "",
      "notes": ""
    }
  },
  {
    "id": "bronze-arch-path",
    "name": "Bronze Arch Path",
    "description": "Anonymised public demo walk marker for FieldOps Atlas.",
    "siteType": "Walk",
    "status": "demo",
    "regionId": "south-scotland",
    "lat": 55.480338,
    "lng": -2.827597,
    "what3words": "",
    "accessNotes": "",
    "address": "",
    "gridRef": "",
    "services": [],
    "inputs": [],
    "equipment": [],
    "walkthrough": {
      "type": "",
      "url": "",
      "notes": ""
    }
  },
  {
    "id": "sparrow-well-cave",
    "name": "Sparrow Well Cave",
    "description": "Anonymised public demo walk marker for FieldOps Atlas.",
    "siteType": "Walk",
    "status": "demo",
    "regionId": "south-scotland",
    "lat": 55.952193,
    "lng": -2.791516,
    "what3words": "",
    "accessNotes": "",
    "address": "",
    "gridRef": "",
    "services": [],
    "inputs": [],
    "equipment": [],
    "walkthrough": {
      "type": "",
      "url": "",
      "notes": ""
    }
  },
  {
    "id": "pine-path-hollow",
    "name": "Pine Path Hollow",
    "description": "Anonymised public demo walk marker for FieldOps Atlas.",
    "siteType": "Walk",
    "status": "demo",
    "regionId": "south-scotland",
    "lat": 56.234563,
    "lng": -3.291534,
    "what3words": "",
    "accessNotes": "",
    "address": "",
    "gridRef": "",
    "services": [],
    "inputs": [],
    "equipment": [],
    "walkthrough": {
      "type": "",
      "url": "",
      "notes": ""
    }
  },
  {
    "id": "bronze-wood-ridge",
    "name": "Bronze Wood Ridge",
    "description": "Anonymised public demo walk marker for FieldOps Atlas.",
    "siteType": "Walk",
    "status": "demo",
    "regionId": "south-scotland",
    "lat": 55.454492,
    "lng": -4.630904,
    "what3words": "",
    "accessNotes": "",
    "address": "",
    "gridRef": "",
    "services": [],
    "inputs": [],
    "equipment": [],
    "walkthrough": {
      "type": "",
      "url": "",
      "notes": ""
    }
  },
  {
    "id": "bluebell-harbour-cave",
    "name": "Bluebell Harbour Cave",
    "description": "Anonymised public demo walk marker for FieldOps Atlas.",
    "siteType": "Walk",
    "status": "demo",
    "regionId": "south-scotland",
    "lat": 55.750965,
    "lng": -4.803432,
    "what3words": "",
    "accessNotes": "",
    "address": "",
    "gridRef": "",
    "services": [],
    "inputs": [],
    "equipment": [],
    "walkthrough": {
      "type": "",
      "url": "",
      "notes": ""
    }
  },
  {
    "id": "bronze-drift-ramble",
    "name": "Bronze Drift Ramble",
    "description": "Anonymised public demo walk marker for FieldOps Atlas.",
    "siteType": "Walk",
    "status": "demo",
    "regionId": "south-scotland",
    "lat": 55.116588,
    "lng": -4.981995,
    "what3words": "",
    "accessNotes": "",
    "address": "",
    "gridRef": "",
    "services": [],
    "inputs": [],
    "equipment": [],
    "walkthrough": {
      "type": "",
      "url": "",
      "notes": ""
    }
  },
  {
    "id": "moon-haven-path",
    "name": "Moon Haven Path",
    "description": "Anonymised public demo walk marker for FieldOps Atlas.",
    "siteType": "Walk",
    "status": "demo",
    "regionId": "south-scotland",
    "lat": 55.418792,
    "lng": -5.767315,
    "what3words": "",
    "accessNotes": "",
    "address": "",
    "gridRef": "",
    "services": [],
    "inputs": [],
    "equipment": [],
    "walkthrough": {
      "type": "",
      "url": "",
      "notes": ""
    }
  },
  {
    "id": "sunset-mere-ramble",
    "name": "Sunset Mere Ramble",
    "description": "Anonymised public demo walk marker for FieldOps Atlas.",
    "siteType": "Walk",
    "status": "demo",
    "regionId": "south-scotland",
    "lat": 56.363243,
    "lng": -2.960514,
    "what3words": "",
    "accessNotes": "",
    "address": "",
    "gridRef": "",
    "services": [],
    "inputs": [],
    "equipment": [],
    "walkthrough": {
      "type": "",
      "url": "",
      "notes": ""
    }
  },
  {
    "id": "heather-vale-path",
    "name": "Heather Vale Path",
    "description": "Anonymised public demo walk marker for FieldOps Atlas.",
    "siteType": "Walk",
    "status": "demo",
    "regionId": "south-scotland",
    "lat": 56.110272,
    "lng": -5.513621,
    "what3words": "",
    "accessNotes": "",
    "address": "",
    "gridRef": "",
    "services": [],
    "inputs": [],
    "equipment": [],
    "walkthrough": {
      "type": "",
      "url": "",
      "notes": ""
    }
  },
  {
    "id": "fern-thicket-ridge",
    "name": "Fern Thicket Ridge",
    "description": "Anonymised public demo walk marker for FieldOps Atlas.",
    "siteType": "Walk",
    "status": "demo",
    "regionId": "south-scotland",
    "lat": 55.104372,
    "lng": -2.306835,
    "what3words": "",
    "accessNotes": "",
    "address": "",
    "gridRef": "",
    "services": [],
    "inputs": [],
    "equipment": [],
    "walkthrough": {
      "type": "",
      "url": "",
      "notes": ""
    }
  },
  {
    "id": "cinder-mere-trail",
    "name": "Cinder Mere Trail",
    "description": "Anonymised public demo walk marker for FieldOps Atlas.",
    "siteType": "Walk",
    "status": "demo",
    "regionId": "south-scotland",
    "lat": 56.195903,
    "lng": -4.303079,
    "what3words": "",
    "accessNotes": "",
    "address": "",
    "gridRef": "",
    "services": [],
    "inputs": [],
    "equipment": [],
    "walkthrough": {
      "type": "",
      "url": "",
      "notes": ""
    }
  },
  {
    "id": "misty-edge-ramble",
    "name": "Misty Edge Ramble",
    "description": "Anonymised public demo walk marker for FieldOps Atlas.",
    "siteType": "Walk",
    "status": "demo",
    "regionId": "south-scotland",
    "lat": 55.805212,
    "lng": -2.051956,
    "what3words": "",
    "accessNotes": "",
    "address": "",
    "gridRef": "",
    "services": [],
    "inputs": [],
    "equipment": [],
    "walkthrough": {
      "type": "",
      "url": "",
      "notes": ""
    }
  },
  {
    "id": "holly-dale-path",
    "name": "Holly Dale Path",
    "description": "Anonymised public demo walk marker for FieldOps Atlas.",
    "siteType": "Walk",
    "status": "demo",
    "regionId": "south-scotland",
    "lat": 55.753597,
    "lng": -2.013634,
    "what3words": "",
    "accessNotes": "",
    "address": "",
    "gridRef": "",
    "services": [],
    "inputs": [],
    "equipment": [],
    "walkthrough": {
      "type": "",
      "url": "",
      "notes": ""
    }
  },
  {
    "id": "emerald-ford-walk",
    "name": "Emerald Ford Walk",
    "description": "Anonymised public demo walk marker for FieldOps Atlas.",
    "siteType": "Walk",
    "status": "demo",
    "regionId": "south-scotland",
    "lat": 55.588628,
    "lng": -3.537922,
    "what3words": "",
    "accessNotes": "",
    "address": "",
    "gridRef": "",
    "services": [],
    "inputs": [],
    "equipment": [],
    "walkthrough": {
      "type": "",
      "url": "",
      "notes": ""
    }
  },
  {
    "id": "thistle-grove-walk",
    "name": "Thistle Grove Walk",
    "description": "Anonymised public demo walk marker for FieldOps Atlas.",
    "siteType": "Walk",
    "status": "demo",
    "regionId": "south-scotland",
    "lat": 55.880546,
    "lng": -3.830973,
    "what3words": "",
    "accessNotes": "",
    "address": "",
    "gridRef": "",
    "services": [],
    "inputs": [],
    "equipment": [],
    "walkthrough": {
      "type": "",
      "url": "",
      "notes": ""
    }
  },
  {
    "id": "emerald-pool-trail",
    "name": "Emerald Pool Trail",
    "description": "Anonymised public demo walk marker for FieldOps Atlas.",
    "siteType": "Walk",
    "status": "demo",
    "regionId": "south-scotland",
    "lat": 55.52745,
    "lng": -5.335381,
    "what3words": "",
    "accessNotes": "",
    "address": "",
    "gridRef": "",
    "services": [],
    "inputs": [],
    "equipment": [],
    "walkthrough": {
      "type": "",
      "url": "",
      "notes": ""
    }
  },
  {
    "id": "quiet-rise-trail",
    "name": "Quiet Rise Trail",
    "description": "Anonymised public demo walk marker for FieldOps Atlas.",
    "siteType": "Walk",
    "status": "demo",
    "regionId": "south-scotland",
    "lat": 55.363833,
    "lng": -2.69034,
    "what3words": "",
    "accessNotes": "",
    "address": "",
    "gridRef": "",
    "services": [],
    "inputs": [],
    "equipment": [],
    "walkthrough": {
      "type": "",
      "url": "",
      "notes": ""
    }
  },
  {
    "id": "bramble-stream-cave",
    "name": "Bramble Stream Cave",
    "description": "Anonymised public demo walk marker for FieldOps Atlas.",
    "siteType": "Walk",
    "status": "demo",
    "regionId": "south-scotland",
    "lat": 55.936721,
    "lng": -3.183857,
    "what3words": "",
    "accessNotes": "",
    "address": "",
    "gridRef": "",
    "services": [],
    "inputs": [],
    "equipment": [],
    "walkthrough": {
      "type": "",
      "url": "",
      "notes": ""
    }
  },
  {
    "id": "juniper-shelf-loop",
    "name": "Juniper Shelf Loop",
    "description": "Anonymised public demo walk marker for FieldOps Atlas.",
    "siteType": "Walk",
    "status": "demo",
    "regionId": "south-scotland",
    "lat": 56.17856,
    "lng": -3.974068,
    "what3words": "",
    "accessNotes": "",
    "address": "",
    "gridRef": "",
    "services": [],
    "inputs": [],
    "equipment": [],
    "walkthrough": {
      "type": "",
      "url": "",
      "notes": ""
    }
  },
  {
    "id": "ashen-loop-walk",
    "name": "Ashen Loop Walk",
    "description": "Anonymised public demo walk marker for FieldOps Atlas.",
    "siteType": "Walk",
    "status": "demo",
    "regionId": "south-scotland",
    "lat": 55.633724,
    "lng": -3.355091,
    "what3words": "",
    "accessNotes": "",
    "address": "",
    "gridRef": "",
    "services": [],
    "inputs": [],
    "equipment": [],
    "walkthrough": {
      "type": "",
      "url": "",
      "notes": ""
    }
  },
  {
    "id": "hazel-well-hollow",
    "name": "Hazel Well Hollow",
    "description": "Anonymised public demo walk marker for FieldOps Atlas.",
    "siteType": "Walk",
    "status": "demo",
    "regionId": "south-scotland",
    "lat": 55.445171,
    "lng": -4.656875,
    "what3words": "",
    "accessNotes": "",
    "address": "",
    "gridRef": "",
    "services": [],
    "inputs": [],
    "equipment": [],
    "walkthrough": {
      "type": "",
      "url": "",
      "notes": ""
    }
  },
  {
    "id": "pine-bend-loop",
    "name": "Pine Bend Loop",
    "description": "Anonymised public demo walk marker for FieldOps Atlas.",
    "siteType": "Walk",
    "status": "demo",
    "regionId": "south-scotland",
    "lat": 55.29053,
    "lng": -2.398113,
    "what3words": "",
    "accessNotes": "",
    "address": "",
    "gridRef": "",
    "services": [],
    "inputs": [],
    "equipment": [],
    "walkthrough": {
      "type": "",
      "url": "",
      "notes": ""
    }
  },
  {
    "id": "silver-burrow-trail",
    "name": "Silver Burrow Trail",
    "description": "Anonymised public demo walk marker for FieldOps Atlas.",
    "siteType": "Walk",
    "status": "demo",
    "regionId": "south-scotland",
    "lat": 56.192791,
    "lng": -4.171893,
    "what3words": "",
    "accessNotes": "",
    "address": "",
    "gridRef": "",
    "services": [],
    "inputs": [],
    "equipment": [],
    "walkthrough": {
      "type": "",
      "url": "",
      "notes": ""
    }
  },
  {
    "id": "hidden-moor-trail",
    "name": "Hidden Moor Trail",
    "description": "Anonymised public demo walk marker for FieldOps Atlas.",
    "siteType": "Walk",
    "status": "demo",
    "regionId": "south-scotland",
    "lat": 55.377218,
    "lng": -5.646956,
    "what3words": "",
    "accessNotes": "",
    "address": "",
    "gridRef": "",
    "services": [],
    "inputs": [],
    "equipment": [],
    "walkthrough": {
      "type": "",
      "url": "",
      "notes": ""
    }
  },
  {
    "id": "thistle-grove-cave",
    "name": "Thistle Grove Cave",
    "description": "Anonymised public demo walk marker for FieldOps Atlas.",
    "siteType": "Walk",
    "status": "demo",
    "regionId": "south-scotland",
    "lat": 55.445492,
    "lng": -5.54437,
    "what3words": "",
    "accessNotes": "",
    "address": "",
    "gridRef": "",
    "services": [],
    "inputs": [],
    "equipment": [],
    "walkthrough": {
      "type": "",
      "url": "",
      "notes": ""
    }
  },
  {
    "id": "twilight-run-ramble",
    "name": "Twilight Run Ramble",
    "description": "Anonymised public demo walk marker for FieldOps Atlas.",
    "siteType": "Walk",
    "status": "demo",
    "regionId": "south-scotland",
    "lat": 55.922423,
    "lng": -3.197187,
    "what3words": "",
    "accessNotes": "",
    "address": "",
    "gridRef": "",
    "services": [],
    "inputs": [],
    "equipment": [],
    "walkthrough": {
      "type": "",
      "url": "",
      "notes": ""
    }
  },
  {
    "id": "red-valley-cave",
    "name": "Red Valley Cave",
    "description": "Anonymised public demo walk marker for FieldOps Atlas.",
    "siteType": "Walk",
    "status": "demo",
    "regionId": "south-scotland",
    "lat": 55.983657,
    "lng": -3.153182,
    "what3words": "",
    "accessNotes": "",
    "address": "",
    "gridRef": "",
    "services": [],
    "inputs": [],
    "equipment": [],
    "walkthrough": {
      "type": "",
      "url": "",
      "notes": ""
    }
  },
  {
    "id": "starling-copse-walk",
    "name": "Starling Copse Walk",
    "description": "Anonymised public demo walk marker for FieldOps Atlas.",
    "siteType": "Walk",
    "status": "demo",
    "regionId": "south-scotland",
    "lat": 55.939182,
    "lng": -3.04163,
    "what3words": "",
    "accessNotes": "",
    "address": "",
    "gridRef": "",
    "services": [],
    "inputs": [],
    "equipment": [],
    "walkthrough": {
      "type": "",
      "url": "",
      "notes": ""
    }
  },
  {
    "id": "field-gate-path",
    "name": "Field Gate Path",
    "description": "Anonymised public demo walk marker for FieldOps Atlas.",
    "siteType": "Walk",
    "status": "demo",
    "regionId": "south-scotland",
    "lat": 55.55044,
    "lng": -5.482373,
    "what3words": "",
    "accessNotes": "",
    "address": "",
    "gridRef": "",
    "services": [],
    "inputs": [],
    "equipment": [],
    "walkthrough": {
      "type": "",
      "url": "",
      "notes": ""
    }
  },
  {
    "id": "maple-lane-cave",
    "name": "Maple Lane Cave",
    "description": "Anonymised public demo walk marker for FieldOps Atlas.",
    "siteType": "Walk",
    "status": "demo",
    "regionId": "south-scotland",
    "lat": 55.839631,
    "lng": -4.253169,
    "what3words": "",
    "accessNotes": "",
    "address": "",
    "gridRef": "",
    "services": [],
    "inputs": [],
    "equipment": [],
    "walkthrough": {
      "type": "",
      "url": "",
      "notes": ""
    }
  },
  {
    "id": "slate-run-walk",
    "name": "Slate Run Walk",
    "description": "Anonymised public demo walk marker for FieldOps Atlas.",
    "siteType": "Walk",
    "status": "demo",
    "regionId": "south-scotland",
    "lat": 55.780007,
    "lng": -4.163761,
    "what3words": "",
    "accessNotes": "",
    "address": "",
    "gridRef": "",
    "services": [],
    "inputs": [],
    "equipment": [],
    "walkthrough": {
      "type": "",
      "url": "",
      "notes": ""
    }
  },
  {
    "id": "heather-mere-loop",
    "name": "Heather Mere Loop",
    "description": "Anonymised public demo walk marker for FieldOps Atlas.",
    "siteType": "Walk",
    "status": "demo",
    "regionId": "south-scotland",
    "lat": 55.540697,
    "lng": -4.354524,
    "what3words": "",
    "accessNotes": "",
    "address": "",
    "gridRef": "",
    "services": [],
    "inputs": [],
    "equipment": [],
    "walkthrough": {
      "type": "",
      "url": "",
      "notes": ""
    }
  },
  {
    "id": "green-ledge-ramble",
    "name": "Green Ledge Ramble",
    "description": "Anonymised public demo walk marker for FieldOps Atlas.",
    "siteType": "Walk",
    "status": "demo",
    "regionId": "south-scotland",
    "lat": 55.495526,
    "lng": -1.80092,
    "what3words": "",
    "accessNotes": "",
    "address": "",
    "gridRef": "",
    "services": [],
    "inputs": [],
    "equipment": [],
    "walkthrough": {
      "type": "",
      "url": "",
      "notes": ""
    }
  },
  {
    "id": "iron-run-hollow",
    "name": "Iron Run Hollow",
    "description": "Anonymised public demo walk marker for FieldOps Atlas.",
    "siteType": "Walk",
    "status": "demo",
    "regionId": "south-scotland",
    "lat": 55.770063,
    "lng": -5.531547,
    "what3words": "",
    "accessNotes": "",
    "address": "",
    "gridRef": "",
    "services": [],
    "inputs": [],
    "equipment": [],
    "walkthrough": {
      "type": "",
      "url": "",
      "notes": ""
    }
  },
  {
    "id": "hazel-stream-walk",
    "name": "Hazel Stream Walk",
    "description": "Anonymised public demo walk marker for FieldOps Atlas.",
    "siteType": "Walk",
    "status": "demo",
    "regionId": "south-scotland",
    "lat": 55.729657,
    "lng": -5.413074,
    "what3words": "",
    "accessNotes": "",
    "address": "",
    "gridRef": "",
    "services": [],
    "inputs": [],
    "equipment": [],
    "walkthrough": {
      "type": "",
      "url": "",
      "notes": ""
    }
  },
  {
    "id": "robin-drift-path",
    "name": "Robin Drift Path",
    "description": "Anonymised public demo walk marker for FieldOps Atlas.",
    "siteType": "Walk",
    "status": "demo",
    "regionId": "south-scotland",
    "lat": 55.645187,
    "lng": -2.861282,
    "what3words": "",
    "accessNotes": "",
    "address": "",
    "gridRef": "",
    "services": [],
    "inputs": [],
    "equipment": [],
    "walkthrough": {
      "type": "",
      "url": "",
      "notes": ""
    }
  },
  {
    "id": "heather-gate-path",
    "name": "Heather Gate Path",
    "description": "Anonymised public demo walk marker for FieldOps Atlas.",
    "siteType": "Walk",
    "status": "demo",
    "regionId": "south-scotland",
    "lat": 55.988821,
    "lng": -3.245741,
    "what3words": "",
    "accessNotes": "",
    "address": "",
    "gridRef": "",
    "services": [],
    "inputs": [],
    "equipment": [],
    "walkthrough": {
      "type": "",
      "url": "",
      "notes": ""
    }
  },
  {
    "id": "red-quarry-trail",
    "name": "Red Quarry Trail",
    "description": "Anonymised public demo walk marker for FieldOps Atlas.",
    "siteType": "Walk",
    "status": "demo",
    "regionId": "south-scotland",
    "lat": 56.106701,
    "lng": -3.249844,
    "what3words": "",
    "accessNotes": "",
    "address": "",
    "gridRef": "",
    "services": [],
    "inputs": [],
    "equipment": [],
    "walkthrough": {
      "type": "",
      "url": "",
      "notes": ""
    }
  },
  {
    "id": "otter-stone-ramble",
    "name": "Otter Stone Ramble",
    "description": "Anonymised public demo walk marker for FieldOps Atlas.",
    "siteType": "Walk",
    "status": "demo",
    "regionId": "south-scotland",
    "lat": 56.319195,
    "lng": -3.94674,
    "what3words": "",
    "accessNotes": "",
    "address": "",
    "gridRef": "",
    "services": [],
    "inputs": [],
    "equipment": [],
    "walkthrough": {
      "type": "",
      "url": "",
      "notes": ""
    }
  },
  {
    "id": "bracken-wood-path",
    "name": "Bracken Wood Path",
    "description": "Anonymised public demo walk marker for FieldOps Atlas.",
    "siteType": "Walk",
    "status": "demo",
    "regionId": "south-scotland",
    "lat": 56.350471,
    "lng": -3.823194,
    "what3words": "",
    "accessNotes": "",
    "address": "",
    "gridRef": "",
    "services": [],
    "inputs": [],
    "equipment": [],
    "walkthrough": {
      "type": "",
      "url": "",
      "notes": ""
    }
  },
  {
    "id": "otter-shelf-ramble",
    "name": "Otter Shelf Ramble",
    "description": "Anonymised public demo walk marker for FieldOps Atlas.",
    "siteType": "Walk",
    "status": "demo",
    "regionId": "south-scotland",
    "lat": 55.425658,
    "lng": -2.840213,
    "what3words": "",
    "accessNotes": "",
    "address": "",
    "gridRef": "",
    "services": [],
    "inputs": [],
    "equipment": [],
    "walkthrough": {
      "type": "",
      "url": "",
      "notes": ""
    }
  },
  {
    "id": "sandy-view-walk",
    "name": "Sandy View Walk",
    "description": "Anonymised public demo walk marker for FieldOps Atlas.",
    "siteType": "Walk",
    "status": "demo",
    "regionId": "south-scotland",
    "lat": 55.912649,
    "lng": -3.950955,
    "what3words": "",
    "accessNotes": "",
    "address": "",
    "gridRef": "",
    "services": [],
    "inputs": [],
    "equipment": [],
    "walkthrough": {
      "type": "",
      "url": "",
      "notes": ""
    }
  },
  {
    "id": "sunset-pool-path",
    "name": "Sunset Pool Path",
    "description": "Anonymised public demo walk marker for FieldOps Atlas.",
    "siteType": "Walk",
    "status": "demo",
    "regionId": "south-scotland",
    "lat": 55.976857,
    "lng": -4.025051,
    "what3words": "",
    "accessNotes": "",
    "address": "",
    "gridRef": "",
    "services": [],
    "inputs": [],
    "equipment": [],
    "walkthrough": {
      "type": "",
      "url": "",
      "notes": ""
    }
  },
  {
    "id": "deep-camp-trail",
    "name": "Deep Camp Trail",
    "description": "Anonymised public demo walk marker for FieldOps Atlas.",
    "siteType": "Walk",
    "status": "demo",
    "regionId": "south-scotland",
    "lat": 56.289227,
    "lng": -2.964964,
    "what3words": "",
    "accessNotes": "",
    "address": "",
    "gridRef": "",
    "services": [],
    "inputs": [],
    "equipment": [],
    "walkthrough": {
      "type": "",
      "url": "",
      "notes": ""
    }
  },
  {
    "id": "moss-loop-hollow",
    "name": "Moss Loop Hollow",
    "description": "Anonymised public demo walk marker for FieldOps Atlas.",
    "siteType": "Walk",
    "status": "demo",
    "regionId": "south-scotland",
    "lat": 56.410478,
    "lng": -5.028153,
    "what3words": "",
    "accessNotes": "",
    "address": "",
    "gridRef": "",
    "services": [],
    "inputs": [],
    "equipment": [],
    "walkthrough": {
      "type": "",
      "url": "",
      "notes": ""
    }
  },
  {
    "id": "ivy-camp-trail",
    "name": "Ivy Camp Trail",
    "description": "Anonymised public demo walk marker for FieldOps Atlas.",
    "siteType": "Walk",
    "status": "demo",
    "regionId": "south-scotland",
    "lat": 55.555649,
    "lng": -4.310072,
    "what3words": "",
    "accessNotes": "",
    "address": "",
    "gridRef": "",
    "services": [],
    "inputs": [],
    "equipment": [],
    "walkthrough": {
      "type": "",
      "url": "",
      "notes": ""
    }
  },
  {
    "id": "summer-copse-path",
    "name": "Summer Copse Path",
    "description": "Anonymised public demo walk marker for FieldOps Atlas.",
    "siteType": "Walk",
    "status": "demo",
    "regionId": "south-scotland",
    "lat": 56.222436,
    "lng": -4.113233,
    "what3words": "",
    "accessNotes": "",
    "address": "",
    "gridRef": "",
    "services": [],
    "inputs": [],
    "equipment": [],
    "walkthrough": {
      "type": "",
      "url": "",
      "notes": ""
    }
  },
  {
    "id": "quiet-pool-loop",
    "name": "Quiet Pool Loop",
    "description": "Anonymised public demo walk marker for FieldOps Atlas.",
    "siteType": "Walk",
    "status": "demo",
    "regionId": "south-scotland",
    "lat": 56.197265,
    "lng": -3.711347,
    "what3words": "",
    "accessNotes": "",
    "address": "",
    "gridRef": "",
    "services": [],
    "inputs": [],
    "equipment": [],
    "walkthrough": {
      "type": "",
      "url": "",
      "notes": ""
    }
  },
  {
    "id": "honey-quarry-hollow",
    "name": "Honey Quarry Hollow",
    "description": "Anonymised public demo walk marker for FieldOps Atlas.",
    "siteType": "Walk",
    "status": "demo",
    "regionId": "south-scotland",
    "lat": 55.918198,
    "lng": -3.196091,
    "what3words": "",
    "accessNotes": "",
    "address": "",
    "gridRef": "",
    "services": [],
    "inputs": [],
    "equipment": [],
    "walkthrough": {
      "type": "",
      "url": "",
      "notes": ""
    }
  },
  {
    "id": "river-ridge-hollow",
    "name": "River Ridge Hollow",
    "description": "Anonymised public demo walk marker for FieldOps Atlas.",
    "siteType": "Walk",
    "status": "demo",
    "regionId": "south-scotland",
    "lat": 56.27264,
    "lng": -2.916577,
    "what3words": "",
    "accessNotes": "",
    "address": "",
    "gridRef": "",
    "services": [],
    "inputs": [],
    "equipment": [],
    "walkthrough": {
      "type": "",
      "url": "",
      "notes": ""
    }
  },
  {
    "id": "harbour-field-cave",
    "name": "Harbour Field Cave",
    "description": "Anonymised public demo walk marker for FieldOps Atlas.",
    "siteType": "Walk",
    "status": "demo",
    "regionId": "south-scotland",
    "lat": 55.901985,
    "lng": -4.961719,
    "what3words": "",
    "accessNotes": "",
    "address": "",
    "gridRef": "",
    "services": [],
    "inputs": [],
    "equipment": [],
    "walkthrough": {
      "type": "",
      "url": "",
      "notes": ""
    }
  },
  {
    "id": "wren-valley-trail",
    "name": "Wren Valley Trail",
    "description": "Anonymised public demo walk marker for FieldOps Atlas.",
    "siteType": "Walk",
    "status": "demo",
    "regionId": "south-scotland",
    "lat": 55.971629,
    "lng": -4.897697,
    "what3words": "",
    "accessNotes": "",
    "address": "",
    "gridRef": "",
    "services": [],
    "inputs": [],
    "equipment": [],
    "walkthrough": {
      "type": "",
      "url": "",
      "notes": ""
    }
  },
  {
    "id": "foxglove-step-hollow",
    "name": "Foxglove Step Hollow",
    "description": "Anonymised public demo walk marker for FieldOps Atlas.",
    "siteType": "Walk",
    "status": "demo",
    "regionId": "south-scotland",
    "lat": 55.93191,
    "lng": -4.91413,
    "what3words": "",
    "accessNotes": "",
    "address": "",
    "gridRef": "",
    "services": [],
    "inputs": [],
    "equipment": [],
    "walkthrough": {
      "type": "",
      "url": "",
      "notes": ""
    }
  },
  {
    "id": "cedar-view-walk",
    "name": "Cedar View Walk",
    "description": "Anonymised public demo walk marker for FieldOps Atlas.",
    "siteType": "Walk",
    "status": "demo",
    "regionId": "south-scotland",
    "lat": 55.434461,
    "lng": -4.739943,
    "what3words": "",
    "accessNotes": "",
    "address": "",
    "gridRef": "",
    "services": [],
    "inputs": [],
    "equipment": [],
    "walkthrough": {
      "type": "",
      "url": "",
      "notes": ""
    }
  },
  {
    "id": "quiet-brook-trail",
    "name": "Quiet Brook Trail",
    "description": "Anonymised public demo walk marker for FieldOps Atlas.",
    "siteType": "Walk",
    "status": "demo",
    "regionId": "south-scotland",
    "lat": 56.390091,
    "lng": -4.993376,
    "what3words": "",
    "accessNotes": "",
    "address": "",
    "gridRef": "",
    "services": [],
    "inputs": [],
    "equipment": [],
    "walkthrough": {
      "type": "",
      "url": "",
      "notes": ""
    }
  },
  {
    "id": "silver-crossing-hollow",
    "name": "Silver Crossing Hollow",
    "description": "Anonymised public demo walk marker for FieldOps Atlas.",
    "siteType": "Walk",
    "status": "demo",
    "regionId": "south-scotland",
    "lat": 56.034406,
    "lng": -4.04586,
    "what3words": "",
    "accessNotes": "",
    "address": "",
    "gridRef": "",
    "services": [],
    "inputs": [],
    "equipment": [],
    "walkthrough": {
      "type": "",
      "url": "",
      "notes": ""
    }
  },
  {
    "id": "oak-hollow-ridge",
    "name": "Oak Hollow Ridge",
    "description": "Anonymised public demo walk marker for FieldOps Atlas.",
    "siteType": "Walk",
    "status": "demo",
    "regionId": "south-scotland",
    "lat": 56.090225,
    "lng": -4.036968,
    "what3words": "",
    "accessNotes": "",
    "address": "",
    "gridRef": "",
    "services": [],
    "inputs": [],
    "equipment": [],
    "walkthrough": {
      "type": "",
      "url": "",
      "notes": ""
    }
  },
  {
    "id": "wind-view-path",
    "name": "Wind View Path",
    "description": "Anonymised public demo walk marker for FieldOps Atlas.",
    "siteType": "Walk",
    "status": "demo",
    "regionId": "south-scotland",
    "lat": 56.315556,
    "lng": -5.666167,
    "what3words": "",
    "accessNotes": "",
    "address": "",
    "gridRef": "",
    "services": [],
    "inputs": [],
    "equipment": [],
    "walkthrough": {
      "type": "",
      "url": "",
      "notes": ""
    }
  },
  {
    "id": "amber-crossing-loop",
    "name": "Amber Crossing Loop",
    "description": "Anonymised public demo walk marker for FieldOps Atlas.",
    "siteType": "Walk",
    "status": "demo",
    "regionId": "south-scotland",
    "lat": 56.234732,
    "lng": -2.737208,
    "what3words": "",
    "accessNotes": "",
    "address": "",
    "gridRef": "",
    "services": [],
    "inputs": [],
    "equipment": [],
    "walkthrough": {
      "type": "",
      "url": "",
      "notes": ""
    }
  },
  {
    "id": "ashen-valley-path",
    "name": "Ashen Valley Path",
    "description": "Anonymised public demo walk marker for FieldOps Atlas.",
    "siteType": "Walk",
    "status": "demo",
    "regionId": "south-scotland",
    "lat": 55.914316,
    "lng": -3.180728,
    "what3words": "",
    "accessNotes": "",
    "address": "",
    "gridRef": "",
    "services": [],
    "inputs": [],
    "equipment": [],
    "walkthrough": {
      "type": "",
      "url": "",
      "notes": ""
    }
  },
  {
    "id": "flint-lane-ridge",
    "name": "Flint Lane Ridge",
    "description": "Anonymised public demo walk marker for FieldOps Atlas.",
    "siteType": "Walk",
    "status": "demo",
    "regionId": "south-scotland",
    "lat": 55.802283,
    "lng": -2.102415,
    "what3words": "",
    "accessNotes": "",
    "address": "",
    "gridRef": "",
    "services": [],
    "inputs": [],
    "equipment": [],
    "walkthrough": {
      "type": "",
      "url": "",
      "notes": ""
    }
  },
  {
    "id": "sandy-bank-path",
    "name": "Sandy Bank Path",
    "description": "Anonymised public demo walk marker for FieldOps Atlas.",
    "siteType": "Walk",
    "status": "demo",
    "regionId": "south-scotland",
    "lat": 55.188285,
    "lng": -2.473585,
    "what3words": "",
    "accessNotes": "",
    "address": "",
    "gridRef": "",
    "services": [],
    "inputs": [],
    "equipment": [],
    "walkthrough": {
      "type": "",
      "url": "",
      "notes": ""
    }
  },
  {
    "id": "quiet-run-ridge",
    "name": "Quiet Run Ridge",
    "description": "Anonymised public demo walk marker for FieldOps Atlas.",
    "siteType": "Walk",
    "status": "demo",
    "regionId": "south-scotland",
    "lat": 56.087428,
    "lng": -4.268291,
    "what3words": "",
    "accessNotes": "",
    "address": "",
    "gridRef": "",
    "services": [],
    "inputs": [],
    "equipment": [],
    "walkthrough": {
      "type": "",
      "url": "",
      "notes": ""
    }
  },
  {
    "id": "harbour-dell-cave",
    "name": "Harbour Dell Cave",
    "description": "Anonymised public demo walk marker for FieldOps Atlas.",
    "siteType": "Walk",
    "status": "demo",
    "regionId": "south-scotland",
    "lat": 55.650567,
    "lng": -2.817549,
    "what3words": "",
    "accessNotes": "",
    "address": "",
    "gridRef": "",
    "services": [],
    "inputs": [],
    "equipment": [],
    "walkthrough": {
      "type": "",
      "url": "",
      "notes": ""
    }
  },
  {
    "id": "golden-view-walk",
    "name": "Golden View Walk",
    "description": "Anonymised public demo walk marker for FieldOps Atlas.",
    "siteType": "Walk",
    "status": "demo",
    "regionId": "south-scotland",
    "lat": 55.608136,
    "lng": -2.816617,
    "what3words": "",
    "accessNotes": "",
    "address": "",
    "gridRef": "",
    "services": [],
    "inputs": [],
    "equipment": [],
    "walkthrough": {
      "type": "",
      "url": "",
      "notes": ""
    }
  },
  {
    "id": "hazel-cove-path",
    "name": "Hazel Cove Path",
    "description": "Anonymised public demo walk marker for FieldOps Atlas.",
    "siteType": "Walk",
    "status": "demo",
    "regionId": "south-scotland",
    "lat": 56.12604,
    "lng": -4.810406,
    "what3words": "",
    "accessNotes": "",
    "address": "",
    "gridRef": "",
    "services": [],
    "inputs": [],
    "equipment": [],
    "walkthrough": {
      "type": "",
      "url": "",
      "notes": ""
    }
  },
  {
    "id": "low-path-ramble",
    "name": "Low Path Ramble",
    "description": "Anonymised public demo walk marker for FieldOps Atlas.",
    "siteType": "Walk",
    "status": "demo",
    "regionId": "south-scotland",
    "lat": 56.013277,
    "lng": -2.81696,
    "what3words": "",
    "accessNotes": "",
    "address": "",
    "gridRef": "",
    "services": [],
    "inputs": [],
    "equipment": [],
    "walkthrough": {
      "type": "",
      "url": "",
      "notes": ""
    }
  },
  {
    "id": "moss-scar-cave",
    "name": "Moss Scar Cave",
    "description": "Anonymised public demo walk marker for FieldOps Atlas.",
    "siteType": "Walk",
    "status": "demo",
    "regionId": "south-scotland",
    "lat": 55.645843,
    "lng": -5.732444,
    "what3words": "",
    "accessNotes": "",
    "address": "",
    "gridRef": "",
    "services": [],
    "inputs": [],
    "equipment": [],
    "walkthrough": {
      "type": "",
      "url": "",
      "notes": ""
    }
  },
  {
    "id": "juniper-burrow-path",
    "name": "Juniper Burrow Path",
    "description": "Anonymised public demo walk marker for FieldOps Atlas.",
    "siteType": "Walk",
    "status": "demo",
    "regionId": "south-scotland",
    "lat": 55.218541,
    "lng": -4.771965,
    "what3words": "",
    "accessNotes": "",
    "address": "",
    "gridRef": "",
    "services": [],
    "inputs": [],
    "equipment": [],
    "walkthrough": {
      "type": "",
      "url": "",
      "notes": ""
    }
  },
  {
    "id": "cairn-dell-hollow",
    "name": "Cairn Dell Hollow",
    "description": "Anonymised public demo walk marker for FieldOps Atlas.",
    "siteType": "Walk",
    "status": "demo",
    "regionId": "south-scotland",
    "lat": 55.918443,
    "lng": -4.36789,
    "what3words": "",
    "accessNotes": "",
    "address": "",
    "gridRef": "",
    "services": [],
    "inputs": [],
    "equipment": [],
    "walkthrough": {
      "type": "",
      "url": "",
      "notes": ""
    }
  },
  {
    "id": "field-gate-loop",
    "name": "Field Gate Loop",
    "description": "Anonymised public demo walk marker for FieldOps Atlas.",
    "siteType": "Walk",
    "status": "demo",
    "regionId": "south-scotland",
    "lat": 55.838266,
    "lng": -4.292199,
    "what3words": "",
    "accessNotes": "",
    "address": "",
    "gridRef": "",
    "services": [],
    "inputs": [],
    "equipment": [],
    "walkthrough": {
      "type": "",
      "url": "",
      "notes": ""
    }
  },
  {
    "id": "cedar-mere-hollow",
    "name": "Cedar Mere Hollow",
    "description": "Anonymised public demo walk marker for FieldOps Atlas.",
    "siteType": "Walk",
    "status": "demo",
    "regionId": "south-scotland",
    "lat": 55.896758,
    "lng": -4.274713,
    "what3words": "",
    "accessNotes": "",
    "address": "",
    "gridRef": "",
    "services": [],
    "inputs": [],
    "equipment": [],
    "walkthrough": {
      "type": "",
      "url": "",
      "notes": ""
    }
  },
  {
    "id": "lantern-mere-loop",
    "name": "Lantern Mere Loop",
    "description": "Anonymised public demo walk marker for FieldOps Atlas.",
    "siteType": "Walk",
    "status": "demo",
    "regionId": "south-scotland",
    "lat": 55.810186,
    "lng": -4.376975,
    "what3words": "",
    "accessNotes": "",
    "address": "",
    "gridRef": "",
    "services": [],
    "inputs": [],
    "equipment": [],
    "walkthrough": {
      "type": "",
      "url": "",
      "notes": ""
    }
  },
  {
    "id": "green-loop-walk",
    "name": "Green Loop Walk",
    "description": "Anonymised public demo walk marker for FieldOps Atlas.",
    "siteType": "Walk",
    "status": "demo",
    "regionId": "south-scotland",
    "lat": 55.891854,
    "lng": -4.215679,
    "what3words": "",
    "accessNotes": "",
    "address": "",
    "gridRef": "",
    "services": [],
    "inputs": [],
    "equipment": [],
    "walkthrough": {
      "type": "",
      "url": "",
      "notes": ""
    }
  },
  {
    "id": "water-dell-trail",
    "name": "Water Dell Trail",
    "description": "Anonymised public demo walk marker for FieldOps Atlas.",
    "siteType": "Walk",
    "status": "demo",
    "regionId": "south-scotland",
    "lat": 55.824442,
    "lng": -4.243688,
    "what3words": "",
    "accessNotes": "",
    "address": "",
    "gridRef": "",
    "services": [],
    "inputs": [],
    "equipment": [],
    "walkthrough": {
      "type": "",
      "url": "",
      "notes": ""
    }
  },
  {
    "id": "cedar-harbour-path",
    "name": "Cedar Harbour Path",
    "description": "Anonymised public demo walk marker for FieldOps Atlas.",
    "siteType": "Walk",
    "status": "demo",
    "regionId": "south-scotland",
    "lat": 55.850164,
    "lng": -4.325018,
    "what3words": "",
    "accessNotes": "",
    "address": "",
    "gridRef": "",
    "services": [],
    "inputs": [],
    "equipment": [],
    "walkthrough": {
      "type": "",
      "url": "",
      "notes": ""
    }
  },
  {
    "id": "thistle-basin-loop",
    "name": "Thistle Basin Loop",
    "description": "Anonymised public demo walk marker for FieldOps Atlas.",
    "siteType": "Walk",
    "status": "demo",
    "regionId": "south-scotland",
    "lat": 55.817666,
    "lng": -3.222782,
    "what3words": "",
    "accessNotes": "",
    "address": "",
    "gridRef": "",
    "services": [],
    "inputs": [],
    "equipment": [],
    "walkthrough": {
      "type": "",
      "url": "",
      "notes": ""
    }
  },
  {
    "id": "golden-basin-cave",
    "name": "Golden Basin Cave",
    "description": "Anonymised public demo walk marker for FieldOps Atlas.",
    "siteType": "Walk",
    "status": "demo",
    "regionId": "south-scotland",
    "lat": 55.554323,
    "lng": -3.901744,
    "what3words": "",
    "accessNotes": "",
    "address": "",
    "gridRef": "",
    "services": [],
    "inputs": [],
    "equipment": [],
    "walkthrough": {
      "type": "",
      "url": "",
      "notes": ""
    }
  },
  {
    "id": "sage-meadow-path",
    "name": "Sage Meadow Path",
    "description": "Anonymised public demo walk marker for FieldOps Atlas.",
    "siteType": "Walk",
    "status": "demo",
    "regionId": "south-scotland",
    "lat": 55.968461,
    "lng": -3.702241,
    "what3words": "",
    "accessNotes": "",
    "address": "",
    "gridRef": "",
    "services": [],
    "inputs": [],
    "equipment": [],
    "walkthrough": {
      "type": "",
      "url": "",
      "notes": ""
    }
  },
  {
    "id": "foxglove-dale-loop",
    "name": "Foxglove Dale Loop",
    "description": "Anonymised public demo walk marker for FieldOps Atlas.",
    "siteType": "Walk",
    "status": "demo",
    "regionId": "south-scotland",
    "lat": 55.962825,
    "lng": -4.742637,
    "what3words": "",
    "accessNotes": "",
    "address": "",
    "gridRef": "",
    "services": [],
    "inputs": [],
    "equipment": [],
    "walkthrough": {
      "type": "",
      "url": "",
      "notes": ""
    }
  },
  {
    "id": "foxglove-brook-path",
    "name": "Foxglove Brook Path",
    "description": "Anonymised public demo walk marker for FieldOps Atlas.",
    "siteType": "Walk",
    "status": "demo",
    "regionId": "south-scotland",
    "lat": 55.968657,
    "lng": -2.70551,
    "what3words": "",
    "accessNotes": "",
    "address": "",
    "gridRef": "",
    "services": [],
    "inputs": [],
    "equipment": [],
    "walkthrough": {
      "type": "",
      "url": "",
      "notes": ""
    }
  },
  {
    "id": "juniper-arch-trail",
    "name": "Juniper Arch Trail",
    "description": "Anonymised public demo walk marker for FieldOps Atlas.",
    "siteType": "Walk",
    "status": "demo",
    "regionId": "south-scotland",
    "lat": 55.783884,
    "lng": -3.088202,
    "what3words": "",
    "accessNotes": "",
    "address": "",
    "gridRef": "",
    "services": [],
    "inputs": [],
    "equipment": [],
    "walkthrough": {
      "type": "",
      "url": "",
      "notes": ""
    }
  },
  {
    "id": "juniper-tarn-hollow",
    "name": "Juniper Tarn Hollow",
    "description": "Anonymised public demo walk marker for FieldOps Atlas.",
    "siteType": "Walk",
    "status": "demo",
    "regionId": "south-scotland",
    "lat": 55.45823,
    "lng": -2.761995,
    "what3words": "",
    "accessNotes": "",
    "address": "",
    "gridRef": "",
    "services": [],
    "inputs": [],
    "equipment": [],
    "walkthrough": {
      "type": "",
      "url": "",
      "notes": ""
    }
  },
  {
    "id": "slate-shelf-cave",
    "name": "Slate Shelf Cave",
    "description": "Anonymised public demo walk marker for FieldOps Atlas.",
    "siteType": "Walk",
    "status": "demo",
    "regionId": "south-scotland",
    "lat": 55.279798,
    "lng": -5.633888,
    "what3words": "",
    "accessNotes": "",
    "address": "",
    "gridRef": "",
    "services": [],
    "inputs": [],
    "equipment": [],
    "walkthrough": {
      "type": "",
      "url": "",
      "notes": ""
    }
  },
  {
    "id": "quiet-wood-ramble",
    "name": "Quiet Wood Ramble",
    "description": "Anonymised public demo walk marker for FieldOps Atlas.",
    "siteType": "Walk",
    "status": "demo",
    "regionId": "south-scotland",
    "lat": 55.4257,
    "lng": -4.246226,
    "what3words": "",
    "accessNotes": "",
    "address": "",
    "gridRef": "",
    "services": [],
    "inputs": [],
    "equipment": [],
    "walkthrough": {
      "type": "",
      "url": "",
      "notes": ""
    }
  },
  {
    "id": "little-vale-cave",
    "name": "Little Vale Cave",
    "description": "Anonymised public demo walk marker for FieldOps Atlas.",
    "siteType": "Walk",
    "status": "demo",
    "regionId": "south-scotland",
    "lat": 55.656357,
    "lng": -3.098008,
    "what3words": "",
    "accessNotes": "",
    "address": "",
    "gridRef": "",
    "services": [],
    "inputs": [],
    "equipment": [],
    "walkthrough": {
      "type": "",
      "url": "",
      "notes": ""
    }
  },
  {
    "id": "wind-glen-cave",
    "name": "Wind Glen Cave",
    "description": "Anonymised public demo walk marker for FieldOps Atlas.",
    "siteType": "Walk",
    "status": "demo",
    "regionId": "south-scotland",
    "lat": 55.647618,
    "lng": -4.699975,
    "what3words": "",
    "accessNotes": "",
    "address": "",
    "gridRef": "",
    "services": [],
    "inputs": [],
    "equipment": [],
    "walkthrough": {
      "type": "",
      "url": "",
      "notes": ""
    }
  },
  {
    "id": "emerald-glen-cave",
    "name": "Emerald Glen Cave",
    "description": "Anonymised public demo walk marker for FieldOps Atlas.",
    "siteType": "Walk",
    "status": "demo",
    "regionId": "south-scotland",
    "lat": 55.514464,
    "lng": -2.561762,
    "what3words": "",
    "accessNotes": "",
    "address": "",
    "gridRef": "",
    "services": [],
    "inputs": [],
    "equipment": [],
    "walkthrough": {
      "type": "",
      "url": "",
      "notes": ""
    }
  },
  {
    "id": "soft-copse-loop",
    "name": "Soft Copse Loop",
    "description": "Anonymised public demo walk marker for FieldOps Atlas.",
    "siteType": "Walk",
    "status": "demo",
    "regionId": "south-scotland",
    "lat": 55.907613,
    "lng": -4.279768,
    "what3words": "",
    "accessNotes": "",
    "address": "",
    "gridRef": "",
    "services": [],
    "inputs": [],
    "equipment": [],
    "walkthrough": {
      "type": "",
      "url": "",
      "notes": ""
    }
  },
  {
    "id": "brook-camp-hollow",
    "name": "Brook Camp Hollow",
    "description": "Anonymised public demo walk marker for FieldOps Atlas.",
    "siteType": "Walk",
    "status": "demo",
    "regionId": "south-scotland",
    "lat": 55.301968,
    "lng": -2.554372,
    "what3words": "",
    "accessNotes": "",
    "address": "",
    "gridRef": "",
    "services": [],
    "inputs": [],
    "equipment": [],
    "walkthrough": {
      "type": "",
      "url": "",
      "notes": ""
    }
  },
  {
    "id": "dawn-moss-ridge",
    "name": "Dawn Moss Ridge",
    "description": "Anonymised public demo walk marker for FieldOps Atlas.",
    "siteType": "Walk",
    "status": "demo",
    "regionId": "south-scotland",
    "lat": 56.002376,
    "lng": -4.420941,
    "what3words": "",
    "accessNotes": "",
    "address": "",
    "gridRef": "",
    "services": [],
    "inputs": [],
    "equipment": [],
    "walkthrough": {
      "type": "",
      "url": "",
      "notes": ""
    }
  },
  {
    "id": "distant-glen-path",
    "name": "Distant Glen Path",
    "description": "Anonymised public demo walk marker for FieldOps Atlas.",
    "siteType": "Walk",
    "status": "demo",
    "regionId": "south-scotland",
    "lat": 55.926077,
    "lng": -4.607815,
    "what3words": "",
    "accessNotes": "",
    "address": "",
    "gridRef": "",
    "services": [],
    "inputs": [],
    "equipment": [],
    "walkthrough": {
      "type": "",
      "url": "",
      "notes": ""
    }
  },
  {
    "id": "hidden-valley-walk",
    "name": "Hidden Valley Walk",
    "description": "Anonymised public demo walk marker for FieldOps Atlas.",
    "siteType": "Walk",
    "status": "demo",
    "regionId": "south-scotland",
    "lat": 56.24786,
    "lng": -5.488033,
    "what3words": "",
    "accessNotes": "",
    "address": "",
    "gridRef": "",
    "services": [],
    "inputs": [],
    "equipment": [],
    "walkthrough": {
      "type": "",
      "url": "",
      "notes": ""
    }
  },
  {
    "id": "sunset-bend-loop",
    "name": "Sunset Bend Loop",
    "description": "Anonymised public demo walk marker for FieldOps Atlas.",
    "siteType": "Walk",
    "status": "demo",
    "regionId": "south-scotland",
    "lat": 55.956874,
    "lng": -4.085906,
    "what3words": "",
    "accessNotes": "",
    "address": "",
    "gridRef": "",
    "services": [],
    "inputs": [],
    "equipment": [],
    "walkthrough": {
      "type": "",
      "url": "",
      "notes": ""
    }
  },
  {
    "id": "twilight-crossing-ridge",
    "name": "Twilight Crossing Ridge",
    "description": "Anonymised public demo walk marker for FieldOps Atlas.",
    "siteType": "Walk",
    "status": "demo",
    "regionId": "south-scotland",
    "lat": 56.157399,
    "lng": -3.486005,
    "what3words": "",
    "accessNotes": "",
    "address": "",
    "gridRef": "",
    "services": [],
    "inputs": [],
    "equipment": [],
    "walkthrough": {
      "type": "",
      "url": "",
      "notes": ""
    }
  },
  {
    "id": "meadow-hollow-hollow",
    "name": "Meadow Hollow Hollow",
    "description": "Anonymised public demo walk marker for FieldOps Atlas.",
    "siteType": "Walk",
    "status": "demo",
    "regionId": "south-scotland",
    "lat": 56.221024,
    "lng": -5.454684,
    "what3words": "",
    "accessNotes": "",
    "address": "",
    "gridRef": "",
    "services": [],
    "inputs": [],
    "equipment": [],
    "walkthrough": {
      "type": "",
      "url": "",
      "notes": ""
    }
  },
  {
    "id": "red-drift-walk",
    "name": "Red Drift Walk",
    "description": "Anonymised public demo walk marker for FieldOps Atlas.",
    "siteType": "Walk",
    "status": "demo",
    "regionId": "south-scotland",
    "lat": 55.825604,
    "lng": -3.792159,
    "what3words": "",
    "accessNotes": "",
    "address": "",
    "gridRef": "",
    "services": [],
    "inputs": [],
    "equipment": [],
    "walkthrough": {
      "type": "",
      "url": "",
      "notes": ""
    }
  },
  {
    "id": "cinder-tor-loop",
    "name": "Cinder Tor Loop",
    "description": "Anonymised public demo walk marker for FieldOps Atlas.",
    "siteType": "Walk",
    "status": "demo",
    "regionId": "south-scotland",
    "lat": 56.139603,
    "lng": -3.159609,
    "what3words": "",
    "accessNotes": "",
    "address": "",
    "gridRef": "",
    "services": [],
    "inputs": [],
    "equipment": [],
    "walkthrough": {
      "type": "",
      "url": "",
      "notes": ""
    }
  },
  {
    "id": "bramble-dell-trail",
    "name": "Bramble Dell Trail",
    "description": "Anonymised public demo walk marker for FieldOps Atlas.",
    "siteType": "Walk",
    "status": "demo",
    "regionId": "south-scotland",
    "lat": 56.150195,
    "lng": -3.16072,
    "what3words": "",
    "accessNotes": "",
    "address": "",
    "gridRef": "",
    "services": [],
    "inputs": [],
    "equipment": [],
    "walkthrough": {
      "type": "",
      "url": "",
      "notes": ""
    }
  },
  {
    "id": "ashen-burrow-loop",
    "name": "Ashen Burrow Loop",
    "description": "Anonymised public demo walk marker for FieldOps Atlas.",
    "siteType": "Walk",
    "status": "demo",
    "regionId": "south-scotland",
    "lat": 55.375559,
    "lng": -3.995467,
    "what3words": "",
    "accessNotes": "",
    "address": "",
    "gridRef": "",
    "services": [],
    "inputs": [],
    "equipment": [],
    "walkthrough": {
      "type": "",
      "url": "",
      "notes": ""
    }
  },
  {
    "id": "bramble-copse-ridge",
    "name": "Bramble Copse Ridge",
    "description": "Anonymised public demo walk marker for FieldOps Atlas.",
    "siteType": "Walk",
    "status": "demo",
    "regionId": "south-scotland",
    "lat": 55.646585,
    "lng": -3.832721,
    "what3words": "",
    "accessNotes": "",
    "address": "",
    "gridRef": "",
    "services": [],
    "inputs": [],
    "equipment": [],
    "walkthrough": {
      "type": "",
      "url": "",
      "notes": ""
    }
  },
  {
    "id": "bracken-bend-trail",
    "name": "Bracken Bend Trail",
    "description": "Anonymised public demo walk marker for FieldOps Atlas.",
    "siteType": "Walk",
    "status": "demo",
    "regionId": "south-scotland",
    "lat": 55.295092,
    "lng": -4.556941,
    "what3words": "",
    "accessNotes": "",
    "address": "",
    "gridRef": "",
    "services": [],
    "inputs": [],
    "equipment": [],
    "walkthrough": {
      "type": "",
      "url": "",
      "notes": ""
    }
  },
  {
    "id": "rowan-edge-ridge",
    "name": "Rowan Edge Ridge",
    "description": "Anonymised public demo walk marker for FieldOps Atlas.",
    "siteType": "Walk",
    "status": "demo",
    "regionId": "south-scotland",
    "lat": 55.294979,
    "lng": -4.752578,
    "what3words": "",
    "accessNotes": "",
    "address": "",
    "gridRef": "",
    "services": [],
    "inputs": [],
    "equipment": [],
    "walkthrough": {
      "type": "",
      "url": "",
      "notes": ""
    }
  },
  {
    "id": "cloud-wood-path",
    "name": "Cloud Wood Path",
    "description": "Anonymised public demo walk marker for FieldOps Atlas.",
    "siteType": "Walk",
    "status": "demo",
    "regionId": "south-scotland",
    "lat": 55.356698,
    "lng": -4.81366,
    "what3words": "",
    "accessNotes": "",
    "address": "",
    "gridRef": "",
    "services": [],
    "inputs": [],
    "equipment": [],
    "walkthrough": {
      "type": "",
      "url": "",
      "notes": ""
    }
  },
  {
    "id": "willow-loop-cave",
    "name": "Willow Loop Cave",
    "description": "Anonymised public demo walk marker for FieldOps Atlas.",
    "siteType": "Walk",
    "status": "demo",
    "regionId": "south-scotland",
    "lat": 56.339499,
    "lng": -3.419494,
    "what3words": "",
    "accessNotes": "",
    "address": "",
    "gridRef": "",
    "services": [],
    "inputs": [],
    "equipment": [],
    "walkthrough": {
      "type": "",
      "url": "",
      "notes": ""
    }
  },
  {
    "id": "iron-brook-path",
    "name": "Iron Brook Path",
    "description": "Anonymised public demo walk marker for FieldOps Atlas.",
    "siteType": "Walk",
    "status": "demo",
    "regionId": "south-scotland",
    "lat": 56.152196,
    "lng": -3.501305,
    "what3words": "",
    "accessNotes": "",
    "address": "",
    "gridRef": "",
    "services": [],
    "inputs": [],
    "equipment": [],
    "walkthrough": {
      "type": "",
      "url": "",
      "notes": ""
    }
  },
  {
    "id": "low-valley-hollow",
    "name": "Low Valley Hollow",
    "description": "Anonymised public demo walk marker for FieldOps Atlas.",
    "siteType": "Walk",
    "status": "demo",
    "regionId": "south-scotland",
    "lat": 56.169658,
    "lng": -3.490414,
    "what3words": "",
    "accessNotes": "",
    "address": "",
    "gridRef": "",
    "services": [],
    "inputs": [],
    "equipment": [],
    "walkthrough": {
      "type": "",
      "url": "",
      "notes": ""
    }
  },
  {
    "id": "green-glen-trail",
    "name": "Green Glen Trail",
    "description": "Anonymised public demo walk marker for FieldOps Atlas.",
    "siteType": "Walk",
    "status": "demo",
    "regionId": "south-scotland",
    "lat": 55.124868,
    "lng": -2.984692,
    "what3words": "",
    "accessNotes": "",
    "address": "",
    "gridRef": "",
    "services": [],
    "inputs": [],
    "equipment": [],
    "walkthrough": {
      "type": "",
      "url": "",
      "notes": ""
    }
  },
  {
    "id": "pebble-copse-loop",
    "name": "Pebble Copse Loop",
    "description": "Anonymised public demo walk marker for FieldOps Atlas.",
    "siteType": "Walk",
    "status": "demo",
    "regionId": "south-scotland",
    "lat": 55.839763,
    "lng": -4.856263,
    "what3words": "",
    "accessNotes": "",
    "address": "",
    "gridRef": "",
    "services": [],
    "inputs": [],
    "equipment": [],
    "walkthrough": {
      "type": "",
      "url": "",
      "notes": ""
    }
  },
  {
    "id": "sparrow-basin-ramble",
    "name": "Sparrow Basin Ramble",
    "description": "Anonymised public demo walk marker for FieldOps Atlas.",
    "siteType": "Walk",
    "status": "demo",
    "regionId": "south-scotland",
    "lat": 55.830133,
    "lng": -4.864219,
    "what3words": "",
    "accessNotes": "",
    "address": "",
    "gridRef": "",
    "services": [],
    "inputs": [],
    "equipment": [],
    "walkthrough": {
      "type": "",
      "url": "",
      "notes": ""
    }
  },
  {
    "id": "misty-tor-cave",
    "name": "Misty Tor Cave",
    "description": "Anonymised public demo walk marker for FieldOps Atlas.",
    "siteType": "Walk",
    "status": "demo",
    "regionId": "south-scotland",
    "lat": 55.706266,
    "lng": -2.800749,
    "what3words": "",
    "accessNotes": "",
    "address": "",
    "gridRef": "",
    "services": [],
    "inputs": [],
    "equipment": [],
    "walkthrough": {
      "type": "",
      "url": "",
      "notes": ""
    }
  },
  {
    "id": "amber-vale-hollow",
    "name": "Amber Vale Hollow",
    "description": "Anonymised public demo walk marker for FieldOps Atlas.",
    "siteType": "Walk",
    "status": "demo",
    "regionId": "south-scotland",
    "lat": 55.379527,
    "lng": -3.798163,
    "what3words": "",
    "accessNotes": "",
    "address": "",
    "gridRef": "",
    "services": [],
    "inputs": [],
    "equipment": [],
    "walkthrough": {
      "type": "",
      "url": "",
      "notes": ""
    }
  },
  {
    "id": "whisper-path-walk",
    "name": "Whisper Path Walk",
    "description": "Anonymised public demo walk marker for FieldOps Atlas.",
    "siteType": "Walk",
    "status": "demo",
    "regionId": "south-scotland",
    "lat": 55.327493,
    "lng": -4.494133,
    "what3words": "",
    "accessNotes": "",
    "address": "",
    "gridRef": "",
    "services": [],
    "inputs": [],
    "equipment": [],
    "walkthrough": {
      "type": "",
      "url": "",
      "notes": ""
    }
  },
  {
    "id": "thistle-coast-hollow",
    "name": "Thistle Coast Hollow",
    "description": "Anonymised public demo walk marker for FieldOps Atlas.",
    "siteType": "Walk",
    "status": "demo",
    "regionId": "south-scotland",
    "lat": 56.292689,
    "lng": -3.255831,
    "what3words": "",
    "accessNotes": "",
    "address": "",
    "gridRef": "",
    "services": [],
    "inputs": [],
    "equipment": [],
    "walkthrough": {
      "type": "",
      "url": "",
      "notes": ""
    }
  },
  {
    "id": "field-cove-cave",
    "name": "Field Cove Cave",
    "description": "Anonymised public demo walk marker for FieldOps Atlas.",
    "siteType": "Walk",
    "status": "demo",
    "regionId": "south-scotland",
    "lat": 56.399703,
    "lng": -5.441686,
    "what3words": "",
    "accessNotes": "",
    "address": "",
    "gridRef": "",
    "services": [],
    "inputs": [],
    "equipment": [],
    "walkthrough": {
      "type": "",
      "url": "",
      "notes": ""
    }
  },
  {
    "id": "bramble-basin-ridge",
    "name": "Bramble Basin Ridge",
    "description": "Anonymised public demo walk marker for FieldOps Atlas.",
    "siteType": "Walk",
    "status": "demo",
    "regionId": "south-scotland",
    "lat": 56.408796,
    "lng": -4.249877,
    "what3words": "",
    "accessNotes": "",
    "address": "",
    "gridRef": "",
    "services": [],
    "inputs": [],
    "equipment": [],
    "walkthrough": {
      "type": "",
      "url": "",
      "notes": ""
    }
  },
  {
    "id": "drift-coast-cave",
    "name": "Drift Coast Cave",
    "description": "Anonymised public demo walk marker for FieldOps Atlas.",
    "siteType": "Walk",
    "status": "demo",
    "regionId": "south-scotland",
    "lat": 56.168171,
    "lng": -4.868246,
    "what3words": "",
    "accessNotes": "",
    "address": "",
    "gridRef": "",
    "services": [],
    "inputs": [],
    "equipment": [],
    "walkthrough": {
      "type": "",
      "url": "",
      "notes": ""
    }
  },
  {
    "id": "shadow-crossing-loop",
    "name": "Shadow Crossing Loop",
    "description": "Anonymised public demo walk marker for FieldOps Atlas.",
    "siteType": "Walk",
    "status": "demo",
    "regionId": "south-scotland",
    "lat": 56.107217,
    "lng": -4.943429,
    "what3words": "",
    "accessNotes": "",
    "address": "",
    "gridRef": "",
    "services": [],
    "inputs": [],
    "equipment": [],
    "walkthrough": {
      "type": "",
      "url": "",
      "notes": ""
    }
  },
  {
    "id": "sage-cliff-cave",
    "name": "Sage Cliff Cave",
    "description": "Anonymised public demo walk marker for FieldOps Atlas.",
    "siteType": "Walk",
    "status": "demo",
    "regionId": "south-scotland",
    "lat": 55.763858,
    "lng": -4.668435,
    "what3words": "",
    "accessNotes": "",
    "address": "",
    "gridRef": "",
    "services": [],
    "inputs": [],
    "equipment": [],
    "walkthrough": {
      "type": "",
      "url": "",
      "notes": ""
    }
  },
  {
    "id": "stone-shore-hollow",
    "name": "Stone Shore Hollow",
    "description": "Anonymised public demo walk marker for FieldOps Atlas.",
    "siteType": "Walk",
    "status": "demo",
    "regionId": "south-scotland",
    "lat": 55.452771,
    "lng": -1.656316,
    "what3words": "",
    "accessNotes": "",
    "address": "",
    "gridRef": "",
    "services": [],
    "inputs": [],
    "equipment": [],
    "walkthrough": {
      "type": "",
      "url": "",
      "notes": ""
    }
  },
  {
    "id": "amber-edge-walk",
    "name": "Amber Edge Walk",
    "description": "Anonymised public demo walk marker for FieldOps Atlas.",
    "siteType": "Walk",
    "status": "demo",
    "regionId": "south-scotland",
    "lat": 56.401635,
    "lng": -3.558397,
    "what3words": "",
    "accessNotes": "",
    "address": "",
    "gridRef": "",
    "services": [],
    "inputs": [],
    "equipment": [],
    "walkthrough": {
      "type": "",
      "url": "",
      "notes": ""
    }
  },
  {
    "id": "brook-scar-trail",
    "name": "Brook Scar Trail",
    "description": "Anonymised public demo walk marker for FieldOps Atlas.",
    "siteType": "Walk",
    "status": "demo",
    "regionId": "south-scotland",
    "lat": 56.016416,
    "lng": -4.637153,
    "what3words": "",
    "accessNotes": "",
    "address": "",
    "gridRef": "",
    "services": [],
    "inputs": [],
    "equipment": [],
    "walkthrough": {
      "type": "",
      "url": "",
      "notes": ""
    }
  },
  {
    "id": "twilight-stone-ridge",
    "name": "Twilight Stone Ridge",
    "description": "Anonymised public demo walk marker for FieldOps Atlas.",
    "siteType": "Walk",
    "status": "demo",
    "regionId": "south-scotland",
    "lat": 55.791091,
    "lng": -4.94583,
    "what3words": "",
    "accessNotes": "",
    "address": "",
    "gridRef": "",
    "services": [],
    "inputs": [],
    "equipment": [],
    "walkthrough": {
      "type": "",
      "url": "",
      "notes": ""
    }
  },
  {
    "id": "thistle-ford-hollow",
    "name": "Thistle Ford Hollow",
    "description": "Anonymised public demo walk marker for FieldOps Atlas.",
    "siteType": "Walk",
    "status": "demo",
    "regionId": "south-scotland",
    "lat": 55.370741,
    "lng": -3.427371,
    "what3words": "",
    "accessNotes": "",
    "address": "",
    "gridRef": "",
    "services": [],
    "inputs": [],
    "equipment": [],
    "walkthrough": {
      "type": "",
      "url": "",
      "notes": ""
    }
  },
  {
    "id": "holly-ladder-cave",
    "name": "Holly Ladder Cave",
    "description": "Anonymised public demo walk marker for FieldOps Atlas.",
    "siteType": "Walk",
    "status": "demo",
    "regionId": "south-scotland",
    "lat": 55.314134,
    "lng": -3.438498,
    "what3words": "",
    "accessNotes": "",
    "address": "",
    "gridRef": "",
    "services": [],
    "inputs": [],
    "equipment": [],
    "walkthrough": {
      "type": "",
      "url": "",
      "notes": ""
    }
  },
  {
    "id": "twilight-dell-walk",
    "name": "Twilight Dell Walk",
    "description": "Anonymised public demo walk marker for FieldOps Atlas.",
    "siteType": "Walk",
    "status": "demo",
    "regionId": "south-scotland",
    "lat": 55.159677,
    "lng": -1.678043,
    "what3words": "",
    "accessNotes": "",
    "address": "",
    "gridRef": "",
    "services": [],
    "inputs": [],
    "equipment": [],
    "walkthrough": {
      "type": "",
      "url": "",
      "notes": ""
    }
  },
  {
    "id": "dawn-water-ramble",
    "name": "Dawn Water Ramble",
    "description": "Anonymised public demo walk marker for FieldOps Atlas.",
    "siteType": "Walk",
    "status": "demo",
    "regionId": "south-scotland",
    "lat": 55.544788,
    "lng": -4.023337,
    "what3words": "",
    "accessNotes": "",
    "address": "",
    "gridRef": "",
    "services": [],
    "inputs": [],
    "equipment": [],
    "walkthrough": {
      "type": "",
      "url": "",
      "notes": ""
    }
  },
  {
    "id": "velvet-step-walk",
    "name": "Velvet Step Walk",
    "description": "Anonymised public demo walk marker for FieldOps Atlas.",
    "siteType": "Walk",
    "status": "demo",
    "regionId": "south-scotland",
    "lat": 55.767547,
    "lng": -4.276499,
    "what3words": "",
    "accessNotes": "",
    "address": "",
    "gridRef": "",
    "services": [],
    "inputs": [],
    "equipment": [],
    "walkthrough": {
      "type": "",
      "url": "",
      "notes": ""
    }
  },
  {
    "id": "autumn-moor-walk",
    "name": "Autumn Moor Walk",
    "description": "Anonymised public demo walk marker for FieldOps Atlas.",
    "siteType": "Walk",
    "status": "demo",
    "regionId": "south-scotland",
    "lat": 55.422268,
    "lng": -4.174428,
    "what3words": "",
    "accessNotes": "",
    "address": "",
    "gridRef": "",
    "services": [],
    "inputs": [],
    "equipment": [],
    "walkthrough": {
      "type": "",
      "url": "",
      "notes": ""
    }
  },
  {
    "id": "cloud-thicket-loop",
    "name": "Cloud Thicket Loop",
    "description": "Anonymised public demo walk marker for FieldOps Atlas.",
    "siteType": "Walk",
    "status": "demo",
    "regionId": "south-scotland",
    "lat": 55.835857,
    "lng": -3.041092,
    "what3words": "",
    "accessNotes": "",
    "address": "",
    "gridRef": "",
    "services": [],
    "inputs": [],
    "equipment": [],
    "walkthrough": {
      "type": "",
      "url": "",
      "notes": ""
    }
  },
  {
    "id": "dusk-coast-loop",
    "name": "Dusk Coast Loop",
    "description": "Anonymised public demo walk marker for FieldOps Atlas.",
    "siteType": "Walk",
    "status": "demo",
    "regionId": "south-scotland",
    "lat": 55.853721,
    "lng": -3.038324,
    "what3words": "",
    "accessNotes": "",
    "address": "",
    "gridRef": "",
    "services": [],
    "inputs": [],
    "equipment": [],
    "walkthrough": {
      "type": "",
      "url": "",
      "notes": ""
    }
  },
  {
    "id": "crystal-crossing-loop",
    "name": "Crystal Crossing Loop",
    "description": "Anonymised public demo walk marker for FieldOps Atlas.",
    "siteType": "Walk",
    "status": "demo",
    "regionId": "south-scotland",
    "lat": 56.42973,
    "lng": -5.465136,
    "what3words": "",
    "accessNotes": "",
    "address": "",
    "gridRef": "",
    "services": [],
    "inputs": [],
    "equipment": [],
    "walkthrough": {
      "type": "",
      "url": "",
      "notes": ""
    }
  },
  {
    "id": "hazel-run-ramble",
    "name": "Hazel Run Ramble",
    "description": "Anonymised public demo walk marker for FieldOps Atlas.",
    "siteType": "Walk",
    "status": "demo",
    "regionId": "south-scotland",
    "lat": 55.788428,
    "lng": -4.501447,
    "what3words": "",
    "accessNotes": "",
    "address": "",
    "gridRef": "",
    "services": [],
    "inputs": [],
    "equipment": [],
    "walkthrough": {
      "type": "",
      "url": "",
      "notes": ""
    }
  },
  {
    "id": "low-meadow-walk",
    "name": "Low Meadow Walk",
    "description": "Anonymised public demo walk marker for FieldOps Atlas.",
    "siteType": "Walk",
    "status": "demo",
    "regionId": "south-scotland",
    "lat": 55.649357,
    "lng": -3.205204,
    "what3words": "",
    "accessNotes": "",
    "address": "",
    "gridRef": "",
    "services": [],
    "inputs": [],
    "equipment": [],
    "walkthrough": {
      "type": "",
      "url": "",
      "notes": ""
    }
  },
  {
    "id": "summer-glen-loop",
    "name": "Summer Glen Loop",
    "description": "Anonymised public demo walk marker for FieldOps Atlas.",
    "siteType": "Walk",
    "status": "demo",
    "regionId": "south-scotland",
    "lat": 55.835307,
    "lng": -3.157984,
    "what3words": "",
    "accessNotes": "",
    "address": "",
    "gridRef": "",
    "services": [],
    "inputs": [],
    "equipment": [],
    "walkthrough": {
      "type": "",
      "url": "",
      "notes": ""
    }
  },
  {
    "id": "spring-pool-walk",
    "name": "Spring Pool Walk",
    "description": "Anonymised public demo walk marker for FieldOps Atlas.",
    "siteType": "Walk",
    "status": "demo",
    "regionId": "south-scotland",
    "lat": 55.780228,
    "lng": -3.227363,
    "what3words": "",
    "accessNotes": "",
    "address": "",
    "gridRef": "",
    "services": [],
    "inputs": [],
    "equipment": [],
    "walkthrough": {
      "type": "",
      "url": "",
      "notes": ""
    }
  },
  {
    "id": "sunset-ladder-path",
    "name": "Sunset Ladder Path",
    "description": "Anonymised public demo walk marker for FieldOps Atlas.",
    "siteType": "Walk",
    "status": "demo",
    "regionId": "south-scotland",
    "lat": 55.808344,
    "lng": -3.260139,
    "what3words": "",
    "accessNotes": "",
    "address": "",
    "gridRef": "",
    "services": [],
    "inputs": [],
    "equipment": [],
    "walkthrough": {
      "type": "",
      "url": "",
      "notes": ""
    }
  },
  {
    "id": "frost-burrow-hollow",
    "name": "Frost Burrow Hollow",
    "description": "Anonymised public demo walk marker for FieldOps Atlas.",
    "siteType": "Walk",
    "status": "demo",
    "regionId": "south-scotland",
    "lat": 55.414454,
    "lng": -1.610907,
    "what3words": "",
    "accessNotes": "",
    "address": "",
    "gridRef": "",
    "services": [],
    "inputs": [],
    "equipment": [],
    "walkthrough": {
      "type": "",
      "url": "",
      "notes": ""
    }
  },
  {
    "id": "crystal-valley-cave",
    "name": "Crystal Valley Cave",
    "description": "Anonymised public demo walk marker for FieldOps Atlas.",
    "siteType": "Walk",
    "status": "demo",
    "regionId": "south-scotland",
    "lat": 56.387533,
    "lng": -3.420125,
    "what3words": "",
    "accessNotes": "",
    "address": "",
    "gridRef": "",
    "services": [],
    "inputs": [],
    "equipment": [],
    "walkthrough": {
      "type": "",
      "url": "",
      "notes": ""
    }
  },
  {
    "id": "red-valley-path",
    "name": "Red Valley Path",
    "description": "Anonymised public demo walk marker for FieldOps Atlas.",
    "siteType": "Walk",
    "status": "demo",
    "regionId": "south-scotland",
    "lat": 55.162834,
    "lng": -4.820503,
    "what3words": "",
    "accessNotes": "",
    "address": "",
    "gridRef": "",
    "services": [],
    "inputs": [],
    "equipment": [],
    "walkthrough": {
      "type": "",
      "url": "",
      "notes": ""
    }
  },
  {
    "id": "dawn-warren-walk",
    "name": "Dawn Warren Walk",
    "description": "Anonymised public demo walk marker for FieldOps Atlas.",
    "siteType": "Walk",
    "status": "demo",
    "regionId": "south-scotland",
    "lat": 56.217919,
    "lng": -3.239908,
    "what3words": "",
    "accessNotes": "",
    "address": "",
    "gridRef": "",
    "services": [],
    "inputs": [],
    "equipment": [],
    "walkthrough": {
      "type": "",
      "url": "",
      "notes": ""
    }
  },
  {
    "id": "ivy-camp-path",
    "name": "Ivy Camp Path",
    "description": "Anonymised public demo walk marker for FieldOps Atlas.",
    "siteType": "Walk",
    "status": "demo",
    "regionId": "south-scotland",
    "lat": 55.90679,
    "lng": -4.768942,
    "what3words": "",
    "accessNotes": "",
    "address": "",
    "gridRef": "",
    "services": [],
    "inputs": [],
    "equipment": [],
    "walkthrough": {
      "type": "",
      "url": "",
      "notes": ""
    }
  },
  {
    "id": "slate-dale-loop",
    "name": "Slate Dale Loop",
    "description": "Anonymised public demo walk marker for FieldOps Atlas.",
    "siteType": "Walk",
    "status": "demo",
    "regionId": "south-scotland",
    "lat": 55.901873,
    "lng": -4.83105,
    "what3words": "",
    "accessNotes": "",
    "address": "",
    "gridRef": "",
    "services": [],
    "inputs": [],
    "equipment": [],
    "walkthrough": {
      "type": "",
      "url": "",
      "notes": ""
    }
  },
  {
    "id": "slate-hollow-loop",
    "name": "Slate Hollow Loop",
    "description": "Anonymised public demo walk marker for FieldOps Atlas.",
    "siteType": "Walk",
    "status": "demo",
    "regionId": "south-scotland",
    "lat": 55.957503,
    "lng": -4.759105,
    "what3words": "",
    "accessNotes": "",
    "address": "",
    "gridRef": "",
    "services": [],
    "inputs": [],
    "equipment": [],
    "walkthrough": {
      "type": "",
      "url": "",
      "notes": ""
    }
  },
  {
    "id": "thistle-edge-hollow",
    "name": "Thistle Edge Hollow",
    "description": "Anonymised public demo walk marker for FieldOps Atlas.",
    "siteType": "Walk",
    "status": "demo",
    "regionId": "south-scotland",
    "lat": 56.019382,
    "lng": -4.817907,
    "what3words": "",
    "accessNotes": "",
    "address": "",
    "gridRef": "",
    "services": [],
    "inputs": [],
    "equipment": [],
    "walkthrough": {
      "type": "",
      "url": "",
      "notes": ""
    }
  },
  {
    "id": "cedar-loop-loop",
    "name": "Cedar Loop Loop",
    "description": "Anonymised public demo walk marker for FieldOps Atlas.",
    "siteType": "Walk",
    "status": "demo",
    "regionId": "south-scotland",
    "lat": 56.005867,
    "lng": -4.815211,
    "what3words": "",
    "accessNotes": "",
    "address": "",
    "gridRef": "",
    "services": [],
    "inputs": [],
    "equipment": [],
    "walkthrough": {
      "type": "",
      "url": "",
      "notes": ""
    }
  },
  {
    "id": "meadow-water-ramble",
    "name": "Meadow Water Ramble",
    "description": "Anonymised public demo walk marker for FieldOps Atlas.",
    "siteType": "Walk",
    "status": "demo",
    "regionId": "south-scotland",
    "lat": 55.277886,
    "lng": -1.982378,
    "what3words": "",
    "accessNotes": "",
    "address": "",
    "gridRef": "",
    "services": [],
    "inputs": [],
    "equipment": [],
    "walkthrough": {
      "type": "",
      "url": "",
      "notes": ""
    }
  },
  {
    "id": "sandy-water-walk",
    "name": "Sandy Water Walk",
    "description": "Anonymised public demo walk marker for FieldOps Atlas.",
    "siteType": "Walk",
    "status": "demo",
    "regionId": "south-scotland",
    "lat": 55.857907,
    "lng": -5.018742,
    "what3words": "",
    "accessNotes": "",
    "address": "",
    "gridRef": "",
    "services": [],
    "inputs": [],
    "equipment": [],
    "walkthrough": {
      "type": "",
      "url": "",
      "notes": ""
    }
  },
  {
    "id": "reed-camp-walk",
    "name": "Reed Camp Walk",
    "description": "Anonymised public demo walk marker for FieldOps Atlas.",
    "siteType": "Walk",
    "status": "demo",
    "regionId": "south-scotland",
    "lat": 55.85873,
    "lng": -5.0482,
    "what3words": "",
    "accessNotes": "",
    "address": "",
    "gridRef": "",
    "services": [],
    "inputs": [],
    "equipment": [],
    "walkthrough": {
      "type": "",
      "url": "",
      "notes": ""
    }
  },
  {
    "id": "meadow-arch-cave",
    "name": "Meadow Arch Cave",
    "description": "Anonymised public demo walk marker for FieldOps Atlas.",
    "siteType": "Walk",
    "status": "demo",
    "regionId": "south-scotland",
    "lat": 55.868059,
    "lng": -5.033872,
    "what3words": "",
    "accessNotes": "",
    "address": "",
    "gridRef": "",
    "services": [],
    "inputs": [],
    "equipment": [],
    "walkthrough": {
      "type": "",
      "url": "",
      "notes": ""
    }
  },
  {
    "id": "moss-camp-loop",
    "name": "Moss Camp Loop",
    "description": "Anonymised public demo walk marker for FieldOps Atlas.",
    "siteType": "Walk",
    "status": "demo",
    "regionId": "south-scotland",
    "lat": 55.864499,
    "lng": -4.234249,
    "what3words": "",
    "accessNotes": "",
    "address": "",
    "gridRef": "",
    "services": [],
    "inputs": [],
    "equipment": [],
    "walkthrough": {
      "type": "",
      "url": "",
      "notes": ""
    }
  },
  {
    "id": "amber-camp-path",
    "name": "Amber Camp Path",
    "description": "Anonymised public demo walk marker for FieldOps Atlas.",
    "siteType": "Walk",
    "status": "demo",
    "regionId": "south-scotland",
    "lat": 55.630251,
    "lng": -4.818326,
    "what3words": "",
    "accessNotes": "",
    "address": "",
    "gridRef": "",
    "services": [],
    "inputs": [],
    "equipment": [],
    "walkthrough": {
      "type": "",
      "url": "",
      "notes": ""
    }
  },
  {
    "id": "crystal-tarn-cave-2",
    "name": "Crystal Tarn Cave 2",
    "description": "Anonymised public demo walk marker for FieldOps Atlas.",
    "siteType": "Walk",
    "status": "demo",
    "regionId": "south-scotland",
    "lat": 55.57281,
    "lng": -2.810017,
    "what3words": "",
    "accessNotes": "",
    "address": "",
    "gridRef": "",
    "services": [],
    "inputs": [],
    "equipment": [],
    "walkthrough": {
      "type": "",
      "url": "",
      "notes": ""
    }
  },
  {
    "id": "soft-cove-cave",
    "name": "Soft Cove Cave",
    "description": "Anonymised public demo walk marker for FieldOps Atlas.",
    "siteType": "Walk",
    "status": "demo",
    "regionId": "south-scotland",
    "lat": 55.77692,
    "lng": -4.424393,
    "what3words": "",
    "accessNotes": "",
    "address": "",
    "gridRef": "",
    "services": [],
    "inputs": [],
    "equipment": [],
    "walkthrough": {
      "type": "",
      "url": "",
      "notes": ""
    }
  },
  {
    "id": "pine-run-path",
    "name": "Pine Run Path",
    "description": "Anonymised public demo walk marker for FieldOps Atlas.",
    "siteType": "Walk",
    "status": "demo",
    "regionId": "south-scotland",
    "lat": 55.389797,
    "lng": -1.719685,
    "what3words": "",
    "accessNotes": "",
    "address": "",
    "gridRef": "",
    "services": [],
    "inputs": [],
    "equipment": [],
    "walkthrough": {
      "type": "",
      "url": "",
      "notes": ""
    }
  },
  {
    "id": "silver-scar-path",
    "name": "Silver Scar Path",
    "description": "Anonymised public demo walk marker for FieldOps Atlas.",
    "siteType": "Walk",
    "status": "demo",
    "regionId": "south-scotland",
    "lat": 55.089515,
    "lng": -1.65786,
    "what3words": "",
    "accessNotes": "",
    "address": "",
    "gridRef": "",
    "services": [],
    "inputs": [],
    "equipment": [],
    "walkthrough": {
      "type": "",
      "url": "",
      "notes": ""
    }
  },
  {
    "id": "dawn-mere-ramble",
    "name": "Dawn Mere Ramble",
    "description": "Anonymised public demo walk marker for FieldOps Atlas.",
    "siteType": "Walk",
    "status": "demo",
    "regionId": "south-scotland",
    "lat": 55.844856,
    "lng": -3.753211,
    "what3words": "",
    "accessNotes": "",
    "address": "",
    "gridRef": "",
    "services": [],
    "inputs": [],
    "equipment": [],
    "walkthrough": {
      "type": "",
      "url": "",
      "notes": ""
    }
  },
  {
    "id": "river-brook-ridge",
    "name": "River Brook Ridge",
    "description": "Anonymised public demo walk marker for FieldOps Atlas.",
    "siteType": "Walk",
    "status": "demo",
    "regionId": "south-scotland",
    "lat": 55.490528,
    "lng": -4.248241,
    "what3words": "",
    "accessNotes": "",
    "address": "",
    "gridRef": "",
    "services": [],
    "inputs": [],
    "equipment": [],
    "walkthrough": {
      "type": "",
      "url": "",
      "notes": ""
    }
  },
  {
    "id": "robin-dell-walk",
    "name": "Robin Dell Walk",
    "description": "Anonymised public demo walk marker for FieldOps Atlas.",
    "siteType": "Walk",
    "status": "demo",
    "regionId": "south-scotland",
    "lat": 55.895462,
    "lng": -5.437438,
    "what3words": "",
    "accessNotes": "",
    "address": "",
    "gridRef": "",
    "services": [],
    "inputs": [],
    "equipment": [],
    "walkthrough": {
      "type": "",
      "url": "",
      "notes": ""
    }
  },
  {
    "id": "moon-run-ramble",
    "name": "Moon Run Ramble",
    "description": "Anonymised public demo walk marker for FieldOps Atlas.",
    "siteType": "Walk",
    "status": "demo",
    "regionId": "south-scotland",
    "lat": 55.933903,
    "lng": -5.434046,
    "what3words": "",
    "accessNotes": "",
    "address": "",
    "gridRef": "",
    "services": [],
    "inputs": [],
    "equipment": [],
    "walkthrough": {
      "type": "",
      "url": "",
      "notes": ""
    }
  },
  {
    "id": "otter-bank-walk",
    "name": "Otter Bank Walk",
    "description": "Anonymised public demo walk marker for FieldOps Atlas.",
    "siteType": "Walk",
    "status": "demo",
    "regionId": "south-scotland",
    "lat": 55.879764,
    "lng": -5.450606,
    "what3words": "",
    "accessNotes": "",
    "address": "",
    "gridRef": "",
    "services": [],
    "inputs": [],
    "equipment": [],
    "walkthrough": {
      "type": "",
      "url": "",
      "notes": ""
    }
  },
  {
    "id": "cedar-mill-walk",
    "name": "Cedar Mill Walk",
    "description": "Anonymised public demo walk marker for FieldOps Atlas.",
    "siteType": "Walk",
    "status": "demo",
    "regionId": "south-scotland",
    "lat": 56.426027,
    "lng": -4.201505,
    "what3words": "",
    "accessNotes": "",
    "address": "",
    "gridRef": "",
    "services": [],
    "inputs": [],
    "equipment": [],
    "walkthrough": {
      "type": "",
      "url": "",
      "notes": ""
    }
  },
  {
    "id": "lantern-bank-walk",
    "name": "Lantern Bank Walk",
    "description": "Anonymised public demo walk marker for FieldOps Atlas.",
    "siteType": "Walk",
    "status": "demo",
    "regionId": "south-scotland",
    "lat": 56.125677,
    "lng": -3.956422,
    "what3words": "",
    "accessNotes": "",
    "address": "",
    "gridRef": "",
    "services": [],
    "inputs": [],
    "equipment": [],
    "walkthrough": {
      "type": "",
      "url": "",
      "notes": ""
    }
  },
  {
    "id": "sage-trail-hollow",
    "name": "Sage Trail Hollow",
    "description": "Anonymised public demo walk marker for FieldOps Atlas.",
    "siteType": "Walk",
    "status": "demo",
    "regionId": "south-scotland",
    "lat": 55.661937,
    "lng": -2.900658,
    "what3words": "",
    "accessNotes": "",
    "address": "",
    "gridRef": "",
    "services": [],
    "inputs": [],
    "equipment": [],
    "walkthrough": {
      "type": "",
      "url": "",
      "notes": ""
    }
  },
  {
    "id": "amber-view-ridge",
    "name": "Amber View Ridge",
    "description": "Anonymised public demo walk marker for FieldOps Atlas.",
    "siteType": "Walk",
    "status": "demo",
    "regionId": "south-scotland",
    "lat": 56.208634,
    "lng": -5.032497,
    "what3words": "",
    "accessNotes": "",
    "address": "",
    "gridRef": "",
    "services": [],
    "inputs": [],
    "equipment": [],
    "walkthrough": {
      "type": "",
      "url": "",
      "notes": ""
    }
  },
  {
    "id": "stone-gate-loop",
    "name": "Stone Gate Loop",
    "description": "Anonymised public demo walk marker for FieldOps Atlas.",
    "siteType": "Walk",
    "status": "demo",
    "regionId": "south-scotland",
    "lat": 56.20579,
    "lng": -3.815881,
    "what3words": "",
    "accessNotes": "",
    "address": "",
    "gridRef": "",
    "services": [],
    "inputs": [],
    "equipment": [],
    "walkthrough": {
      "type": "",
      "url": "",
      "notes": ""
    }
  },
  {
    "id": "holly-coast-ramble",
    "name": "Holly Coast Ramble",
    "description": "Anonymised public demo walk marker for FieldOps Atlas.",
    "siteType": "Walk",
    "status": "demo",
    "regionId": "south-scotland",
    "lat": 56.015785,
    "lng": -4.343931,
    "what3words": "",
    "accessNotes": "",
    "address": "",
    "gridRef": "",
    "services": [],
    "inputs": [],
    "equipment": [],
    "walkthrough": {
      "type": "",
      "url": "",
      "notes": ""
    }
  },
  {
    "id": "winter-view-cave",
    "name": "Winter View Cave",
    "description": "Anonymised public demo walk marker for FieldOps Atlas.",
    "siteType": "Walk",
    "status": "demo",
    "regionId": "south-scotland",
    "lat": 56.289456,
    "lng": -4.369882,
    "what3words": "",
    "accessNotes": "",
    "address": "",
    "gridRef": "",
    "services": [],
    "inputs": [],
    "equipment": [],
    "walkthrough": {
      "type": "",
      "url": "",
      "notes": ""
    }
  },
  {
    "id": "rowan-arch-ridge",
    "name": "Rowan Arch Ridge",
    "description": "Anonymised public demo walk marker for FieldOps Atlas.",
    "siteType": "Walk",
    "status": "demo",
    "regionId": "south-scotland",
    "lat": 56.340798,
    "lng": -4.25333,
    "what3words": "",
    "accessNotes": "",
    "address": "",
    "gridRef": "",
    "services": [],
    "inputs": [],
    "equipment": [],
    "walkthrough": {
      "type": "",
      "url": "",
      "notes": ""
    }
  },
  {
    "id": "maple-cove-loop",
    "name": "Maple Cove Loop",
    "description": "Anonymised public demo walk marker for FieldOps Atlas.",
    "siteType": "Walk",
    "status": "demo",
    "regionId": "south-scotland",
    "lat": 55.832285,
    "lng": -5.395963,
    "what3words": "",
    "accessNotes": "",
    "address": "",
    "gridRef": "",
    "services": [],
    "inputs": [],
    "equipment": [],
    "walkthrough": {
      "type": "",
      "url": "",
      "notes": ""
    }
  },
  {
    "id": "red-gate-cave",
    "name": "Red Gate Cave",
    "description": "Anonymised public demo walk marker for FieldOps Atlas.",
    "siteType": "Walk",
    "status": "demo",
    "regionId": "south-scotland",
    "lat": 56.459501,
    "lng": -2.940125,
    "what3words": "",
    "accessNotes": "",
    "address": "",
    "gridRef": "",
    "services": [],
    "inputs": [],
    "equipment": [],
    "walkthrough": {
      "type": "",
      "url": "",
      "notes": ""
    }
  },
  {
    "id": "golden-meadow-trail",
    "name": "Golden Meadow Trail",
    "description": "Anonymised public demo walk marker for FieldOps Atlas.",
    "siteType": "Walk",
    "status": "demo",
    "regionId": "south-scotland",
    "lat": 56.412547,
    "lng": -5.235084,
    "what3words": "",
    "accessNotes": "",
    "address": "",
    "gridRef": "",
    "services": [],
    "inputs": [],
    "equipment": [],
    "walkthrough": {
      "type": "",
      "url": "",
      "notes": ""
    }
  },
  {
    "id": "copper-tarn-cave",
    "name": "Copper Tarn Cave",
    "description": "Anonymised public demo walk marker for FieldOps Atlas.",
    "siteType": "Walk",
    "status": "demo",
    "regionId": "south-scotland",
    "lat": 56.033662,
    "lng": -5.613362,
    "what3words": "",
    "accessNotes": "",
    "address": "",
    "gridRef": "",
    "services": [],
    "inputs": [],
    "equipment": [],
    "walkthrough": {
      "type": "",
      "url": "",
      "notes": ""
    }
  },
  {
    "id": "shadow-drift-hollow",
    "name": "Shadow Drift Hollow",
    "description": "Anonymised public demo walk marker for FieldOps Atlas.",
    "siteType": "Walk",
    "status": "demo",
    "regionId": "south-scotland",
    "lat": 55.156516,
    "lng": -3.821203,
    "what3words": "",
    "accessNotes": "",
    "address": "",
    "gridRef": "",
    "services": [],
    "inputs": [],
    "equipment": [],
    "walkthrough": {
      "type": "",
      "url": "",
      "notes": ""
    }
  },
  {
    "id": "kestrel-thicket-ramble-2",
    "name": "Kestrel Thicket Ramble 2",
    "description": "Anonymised public demo walk marker for FieldOps Atlas.",
    "siteType": "Walk",
    "status": "demo",
    "regionId": "south-scotland",
    "lat": 55.955339,
    "lng": -5.186315,
    "what3words": "",
    "accessNotes": "",
    "address": "",
    "gridRef": "",
    "services": [],
    "inputs": [],
    "equipment": [],
    "walkthrough": {
      "type": "",
      "url": "",
      "notes": ""
    }
  },
  {
    "id": "hazel-lantern-loop",
    "name": "Hazel Lantern Loop",
    "description": "Anonymised public demo walk marker for FieldOps Atlas.",
    "siteType": "Walk",
    "status": "demo",
    "regionId": "south-scotland",
    "lat": 56.192646,
    "lng": -3.718861,
    "what3words": "",
    "accessNotes": "",
    "address": "",
    "gridRef": "",
    "services": [],
    "inputs": [],
    "equipment": [],
    "walkthrough": {
      "type": "",
      "url": "",
      "notes": ""
    }
  },
  {
    "id": "hidden-gate-trail",
    "name": "Hidden Gate Trail",
    "description": "Anonymised public demo walk marker for FieldOps Atlas.",
    "siteType": "Walk",
    "status": "demo",
    "regionId": "south-scotland",
    "lat": 55.930952,
    "lng": -2.92667,
    "what3words": "",
    "accessNotes": "",
    "address": "",
    "gridRef": "",
    "services": [],
    "inputs": [],
    "equipment": [],
    "walkthrough": {
      "type": "",
      "url": "",
      "notes": ""
    }
  },
  {
    "id": "silver-copse-ramble",
    "name": "Silver Copse Ramble",
    "description": "Anonymised public demo walk marker for FieldOps Atlas.",
    "siteType": "Walk",
    "status": "demo",
    "regionId": "south-scotland",
    "lat": 55.575271,
    "lng": -4.631978,
    "what3words": "",
    "accessNotes": "",
    "address": "",
    "gridRef": "",
    "services": [],
    "inputs": [],
    "equipment": [],
    "walkthrough": {
      "type": "",
      "url": "",
      "notes": ""
    }
  },
  {
    "id": "moss-mere-path",
    "name": "Moss Mere Path",
    "description": "Anonymised public demo walk marker for FieldOps Atlas.",
    "siteType": "Walk",
    "status": "demo",
    "regionId": "south-scotland",
    "lat": 55.915245,
    "lng": -4.104792,
    "what3words": "",
    "accessNotes": "",
    "address": "",
    "gridRef": "",
    "services": [],
    "inputs": [],
    "equipment": [],
    "walkthrough": {
      "type": "",
      "url": "",
      "notes": ""
    }
  },
  {
    "id": "rowan-drift-ridge",
    "name": "Rowan Drift Ridge",
    "description": "Anonymised public demo walk marker for FieldOps Atlas.",
    "siteType": "Walk",
    "status": "demo",
    "regionId": "south-scotland",
    "lat": 55.788838,
    "lng": -4.460572,
    "what3words": "",
    "accessNotes": "",
    "address": "",
    "gridRef": "",
    "services": [],
    "inputs": [],
    "equipment": [],
    "walkthrough": {
      "type": "",
      "url": "",
      "notes": ""
    }
  },
  {
    "id": "spring-quarry-path",
    "name": "Spring Quarry Path",
    "description": "Anonymised public demo walk marker for FieldOps Atlas.",
    "siteType": "Walk",
    "status": "demo",
    "regionId": "south-scotland",
    "lat": 55.370984,
    "lng": -3.757787,
    "what3words": "",
    "accessNotes": "",
    "address": "",
    "gridRef": "",
    "services": [],
    "inputs": [],
    "equipment": [],
    "walkthrough": {
      "type": "",
      "url": "",
      "notes": ""
    }
  },
  {
    "id": "green-ford-ramble",
    "name": "Green Ford Ramble",
    "description": "Anonymised public demo walk marker for FieldOps Atlas.",
    "siteType": "Walk",
    "status": "demo",
    "regionId": "south-scotland",
    "lat": 55.728326,
    "lng": -4.878389,
    "what3words": "",
    "accessNotes": "",
    "address": "",
    "gridRef": "",
    "services": [],
    "inputs": [],
    "equipment": [],
    "walkthrough": {
      "type": "",
      "url": "",
      "notes": ""
    }
  },
  {
    "id": "distant-mere-walk",
    "name": "Distant Mere Walk",
    "description": "Anonymised public demo walk marker for FieldOps Atlas.",
    "siteType": "Walk",
    "status": "demo",
    "regionId": "south-scotland",
    "lat": 55.72957,
    "lng": -3.310996,
    "what3words": "",
    "accessNotes": "",
    "address": "",
    "gridRef": "",
    "services": [],
    "inputs": [],
    "equipment": [],
    "walkthrough": {
      "type": "",
      "url": "",
      "notes": ""
    }
  },
  {
    "id": "raven-way-cave",
    "name": "Raven Way Cave",
    "description": "Anonymised public demo walk marker for FieldOps Atlas.",
    "siteType": "Walk",
    "status": "demo",
    "regionId": "south-scotland",
    "lat": 55.504868,
    "lng": -2.047091,
    "what3words": "",
    "accessNotes": "",
    "address": "",
    "gridRef": "",
    "services": [],
    "inputs": [],
    "equipment": [],
    "walkthrough": {
      "type": "",
      "url": "",
      "notes": ""
    }
  },
  {
    "id": "meadow-arch-loop",
    "name": "Meadow Arch Loop",
    "description": "Anonymised public demo walk marker for FieldOps Atlas.",
    "siteType": "Walk",
    "status": "demo",
    "regionId": "south-scotland",
    "lat": 55.512402,
    "lng": -2.237815,
    "what3words": "",
    "accessNotes": "",
    "address": "",
    "gridRef": "",
    "services": [],
    "inputs": [],
    "equipment": [],
    "walkthrough": {
      "type": "",
      "url": "",
      "notes": ""
    }
  }
]
